{"features": [{"geometry": {"coordinates": [36.207769, 36.167334], "type": "Point"}, "properties": {"city": "Hatay", "date": "31/05/2017", "death": "Tespit Edilemeyen", "name": "Semira Arslan", "reason": "Tespit Edilemeyen", "req": "Yok", "source": "https://televizyongazetesi.com/su-kuyusunda-bir-kadin-cesedi-bulundu-muge-anli-ile-tatli-sert-4-mart-2019/1101223", "type": "boundary", "who": "Tespit Edilemeyen", "year": 2017}, "type": "Feature"}, {"geometry": {"coordinates": [40.186676, 37.945471], "type": "Point"}, "properties": {"city": "Diyarbak\u0131r", "date": "09/05/2019", "death": "Tespit Edilemeyen", "name": "Pelda Karaduman", "reason": "Aldatma", "req": "Yok", "source": "http://www.milliyet.com.tr/pelda-icin-vicdan-yaralayan-karar-gundem-2870830/", "type": "boundary", "who": "Sevgilisi", "year": 2017}, "type": "Feature"}, {"geometry": {"coordinates": [28.958691, 41.015665], "type": "Point"}, "properties": {"city": "\u0130stanbul", "date": "23/02/2017", "death": "Kesici Alet", "name": "H\u00fcsniye Kaya", "reason": "Para", "req": "Yok", "source": "http://www.hurriyet.com.tr/gundem/oldurulen-esinin-arkasindan-gozyasi-dokmustu-katil-tanidik-cikti-40762949", "type": "boundary", "who": "Tan\u0131d\u0131\u011f\u0131 Birisi", "year": 2017}, "type": "Feature"}, {"geometry": {"coordinates": [30.235403, 37.711204], "type": "Point"}, "properties": {"city": "Burdur", "date": "31.12.2017", "death": "Kesici Alet, Bo\u011fma", "name": "Ayten Keklik", "reason": "Tespit Edilemeyen", "req": "Yok", "source": "http://www.insanhaber.com/yasam/burdur-da-yeni-yila-girerken-bir-kadin-cinayeti-daha-apartta-h108064.html", "type": "boundary", "who": "Sevgilisi", "year": 2017}, "type": "Feature"}, {"geometry": {"coordinates": [43.341301, 38.512372], "type": "Point"}, "properties": {"city": "Van", "date": "01.03.2017", "death": "Kesici Alet", "name": "G.A.", "reason": "Tespit Edilemeyen", "req": "Yok", "source": "http://www.milliyet.com.tr/genc-kizi-32-yerinde-bicaklayan-gundem-2591423/", "type": "boundary", "who": "Tespit Edilemeyen", "year": 2017}, "type": "Feature"}, {"geometry": {"coordinates": [29.282532, 40.617941], "type": "Point"}, "properties": {"city": "Yalova", "date": "01.06.2017", "death": "Tespit Edilemeyen", "name": "E.U.", "reason": "Tecav\u00fcz", "req": "Yok", "source": "http://www.milliyet.com.tr/6-yasindaki-kiza-tecavuz-edip-gundem-2593447/", "type": "boundary", "who": "Tan\u0131mad\u0131\u011f\u0131 Birisi", "year": 2017}, "type": "Feature"}, {"geometry": {"coordinates": [27.470433, 38.637945], "type": "Point"}, "properties": {"city": "Manisa", "date": "17.12.2017", "death": "Ate\u015fli Silah", "name": "Azize K.", "reason": "Kaza", "req": "Yok", "source": "https://www.haberler.com/kizinin-erkek-arkadasi-zannetti-esini-vurdu-10357904-haberi/", "type": "boundary", "who": "Kocas\u0131", "year": 2017}, "type": "Feature"}, {"geometry": {"coordinates": [28.995728, 41.102752], "type": "Point"}, "properties": {"city": "\u0130stanbul", "date": "01.12.2017", "death": "Ate\u015fli Silah", "name": "Aleyna Can", "reason": "Ayr\u0131lma Talebi", "req": "Yok", "source": "http://www.sozcu.com.tr/2017/gundem/17-yasindaki-genc-kiz-gunluk-kiralanan-dairede-olduruldu-2112997/http://www.milliyet.com.tr/kartal-da-kiralik-evde-oldurulen-gundem-2650581/", "type": "boundary", "who": "Sevgilisi", "year": 2017}, "type": "Feature"}, {"geometry": {"coordinates": [31.748784, 41.495945], "type": "Point"}, "properties": {"city": "Zonguldak", "date": "01.12.2017", "death": "Ate\u015fli Silah", "name": "G\u00fclay G.", "reason": "Tart\u0131\u015fma", "req": "Yok", "source": "https://www.haberler.com/eski-koca-vahseti-eski-esini-ve-kizini-oldurerek-10303060-haberi/", "type": "boundary", "who": "Eski Kocas\u0131", "year": 2017}, "type": "Feature"}, {"geometry": {"coordinates": [31.805841, 41.444894], "type": "Point"}, "properties": {"city": "Zonguldak", "date": "01.12.2017", "death": "Ate\u015fli Silah", "name": "Bet\u00fcl K.", "reason": "Tart\u0131\u015fma", "req": "Yok", "source": "https://www.haberler.com/eski-koca-vahseti-eski-esini-ve-kizini-oldurerek-10303060-haberi/", "type": "boundary", "who": "Babas\u0131", "year": 2017}, "type": "Feature"}, {"geometry": {"coordinates": [40.251741, 37.908434], "type": "Point"}, "properties": {"city": "Diyarbak\u0131r", "date": "02.12.2017", "death": "Ate\u015fli Silah", "name": "G\u00fclseven D.", "reason": "Tespit Edilemeyen", "req": "Yok", "source": "http://www.guneydoguekspres.com/haber/25372/babasina-ait-tarlayi-uyarmak-icin-giden-kadinin-cansiz-bedeni-bulundu.html", "type": "boundary", "who": "Tespit Edilemeyen", "year": 2017}, "type": "Feature"}, {"geometry": {"coordinates": [30.700231, 36.907989], "type": "Point"}, "properties": {"city": "Antalya", "date": "05.12.2017", "death": "Kesici Alet", "name": "Sultan Ulu\u0131\u015f\u0131k", "reason": "Ayr\u0131lma Talebi, K\u0131skan\u00e7l\u0131k", "req": "Yok", "source": "http://www.gazetevatan.com/karisini-oldurdu-birlikte-gordugu-adami-agir-yaraladi-1124010-yasam/", "type": "boundary", "who": "Kocas\u0131", "year": 2017}, "type": "Feature"}, {"geometry": {"coordinates": [43.403363, 38.471331], "type": "Point"}, "properties": {"city": "Van", "date": "14.01.2017", "death": "Ate\u015fli Silah", "name": "\u015eehriban Din\u00e7", "reason": "Bo\u015fanma Talebi, \u015eiddet", "req": "Yok", "source": "http://kazete.com.tr/haber/polisin-koruma-veremeyiz-dedigi-kadini-kocasi-oldurdu_51358", "type": "boundary", "who": "Kocas\u0131", "year": 2017}, "type": "Feature"}, {"geometry": {"coordinates": [27.116845, 38.381145], "type": "Point"}, "properties": {"city": "\u0130zmir", "date": "17.01.2017", "death": "Kesici Alet", "name": "Aysel Aslan", "reason": "Tespit Edilemeyen", "req": "Yok", "source": "http://www.milliyet.com.tr/oldurulup-yol-kenarina-atildi--gundem-2380183/", "type": "boundary", "who": "Tespit Edilemeyen", "year": 2017}, "type": "Feature"}, {"geometry": {"coordinates": [27.16189, 38.472236], "type": "Point"}, "properties": {"city": "\u0130zmir", "date": "17.01.2017", "death": "Kesici Alet", "name": "Behiye Aslan", "reason": "Tespit Edilemeyen", "req": "Yok", "source": "http://www.milliyet.com.tr/oldurulup-yol-kenarina-atildi--gundem-2380183/", "type": "boundary", "who": "Tespit Edilemeyen", "year": 2017}, "type": "Feature"}, {"geometry": {"coordinates": [27.164893, 38.4362], "type": "Point"}, "properties": {"city": "\u0130zmir", "date": "17.01.2017", "death": "Kesici Alet", "name": "Fadime Tiryaki", "reason": "Tespit Edilemeyen", "req": "Yok", "source": "http://www.milliyet.com.tr/oldurulup-yol-kenarina-atildi--gundem-2380183/", "type": "boundary", "who": "Tespit Edilemeyen", "year": 2017}, "type": "Feature"}, {"geometry": {"coordinates": [37.01723, 39.75034], "type": "Point"}, "properties": {"city": "Sivas", "date": "17.01.2017", "death": "Kesici Alet", "name": "Fadime Y\u0131lmaz", "reason": "Tart\u0131\u015fma", "req": "Yok ", "source": "http://www.milliyet.com.tr/sivas-taki-kadin-cinayetinin-gundem-2380139/", "type": "boundary", "who": "Tan\u0131mad\u0131\u011f\u0131 Birisi", "year": 2017}, "type": "Feature"}, {"geometry": {"coordinates": [35.349985, 36.99567], "type": "Point"}, "properties": {"city": "Adana", "date": "15.01.2017", "death": "Ate\u015fli Silah", "name": "Fatma Ta\u015f", "reason": "Ayr\u0131lma Talebi", "req": "Yok", "source": "http://www.milliyet.com.tr/hemsire-anne-ile-kizini-sevgili-gundem-2379913/", "type": "boundary", "who": "Eski Sevgilisi", "year": 2017}, "type": "Feature"}, {"geometry": {"coordinates": [27.115844, 38.440204], "type": "Point"}, "properties": {"city": "\u0130zmir", "date": "16.01.2017", "death": "Ate\u015fi Silah", "name": "Miray \u015eirin", "reason": "K\u0131skan\u00e7l\u0131k", "req": "Yok", "source": "http://www.milliyet.com.tr/izmir-de-yasak-ask-cinayeti-gundem-2379427/", "type": "boundary", "who": "Kocas\u0131", "year": 2017}, "type": "Feature"}, {"geometry": {"coordinates": [27.166895, 38.4362], "type": "Point"}, "properties": {"city": "\u0130zmir", "date": "27.01.2017", "death": "Ate\u015fli Silah", "name": "\u015eeyma Soyuipek", "reason": "Tespit Edilemeyen", "req": "Yok", "source": "http://www.milliyet.com.tr/uyusturucu-mu-yasak-ask-mi--gundem-2385818/", "type": "boundary", "who": "Amcas\u0131", "year": 2017}, "type": "Feature"}, {"geometry": {"coordinates": [28.942675, 41.08073], "type": "Point"}, "properties": {"city": "\u0130stanbul", "date": "21.01.2017", "death": "Ate\u015fli Silah", "name": "Sultan E.", "reason": "Tespit Edilemeyen", "req": "Yok", "source": "http://www.milliyet.com.tr/cani-esten-kan-donduran-not-sizi-gundem-2382387/", "type": "boundary", "who": "Kocas\u0131", "year": 2017}, "type": "Feature"}, {"geometry": {"coordinates": [38.375993, 40.869154], "type": "Point"}, "properties": {"city": "Giresun", "date": "20.01.2017", "death": "Kesici Alet", "name": "Ay\u015fe Kuru", "reason": "Bo\u015fanma Talebi", "req": "Yok", "source": "http://www.milliyet.com.tr/esini-ve-kayinvalidesini-yol-kenari-gundem-2382118/", "type": "boundary", "who": "Kocas\u0131", "year": 2017}, "type": "Feature"}, {"geometry": {"coordinates": [38.394011, 40.951236], "type": "Point"}, "properties": {"city": "Giresun", "date": "20.01.2017", "death": "Kesici Alet", "name": "Neriman Ta\u015f", "reason": "K\u0131z\u0131n\u0131 Korurken", "req": "Yok", "source": "http://www.milliyet.com.tr/esini-ve-kayinvalidesini-yol-kenari-gundem-2382118/", "type": "boundary", "who": "Damad\u0131", "year": 2017}, "type": "Feature"}, {"geometry": {"coordinates": [34.670186, 36.787868], "type": "Point"}, "properties": {"city": "Mersin", "date": "08.02.2017", "death": "Kesici Alet", "name": "B\u00fc\u015fra Uzun", "reason": "Ayr\u0131lma Talebi", "req": "Yok", "source": "http://www.milliyet.com.tr/silifke-de-eski-sevgili-dehseti-gundem-2392659/", "type": "boundary", "who": "Eski Sevgilisi", "year": 2017}, "type": "Feature"}, {"geometry": {"coordinates": [36.971143, 37.603838], "type": "Point"}, "properties": {"city": "Kahramanmara\u015f", "date": "07.02.2017", "death": "Ate\u015fli Silah", "name": "Elif Mercimek", "reason": "Tespit Edilemeyen", "req": "Yok", "source": "http://www.milliyet.com.tr/anne-ve-babasini-oldurdu-gundem-2391930/", "type": "boundary", "who": "O\u011flu", "year": 2017}, "type": "Feature"}, {"geometry": {"coordinates": [34.850723, 39.864031], "type": "Point"}, "properties": {"city": "Yozgat", "date": "05.02.2017", "death": "Ate\u015fli Silah", "name": "Raziye \u00d6.", "reason": "Tespit Edilemeyen", "req": "Yok", "source": "http://www.milliyet.com.tr/once-esini-oldurdu-sonra-da--gundem-2391006/", "type": "boundary", "who": "Kocas\u0131", "year": 2017}, "type": "Feature"}, {"geometry": {"coordinates": [29.033766, 41.047697], "type": "Point"}, "properties": {"city": "\u0130stanbul", "date": "17.01.2017", "death": "Ate\u015fli Silah", "name": "G\u00fclizar D.", "reason": "Tart\u0131\u015fma", "req": "Yok", "source": "http://www.cumhuriyet.com.tr/haber/turkiye/661450/48_saatte_dort_kadin_katledildi.html", "type": "boundary", "who": "Sevgilisi", "year": 2017}, "type": "Feature"}, {"geometry": {"coordinates": [34.587103, 36.771852], "type": "Point"}, "properties": {"city": "Mersin", "date": "12.01.2017", "death": "Tespit Edilemeyen", "name": "Sibel G\u00fcler", "reason": "Tespit Edilemyen", "req": "Yok", "source": "http://www.sabah.com.tr/guney/2017/01/12/yalniz-yasayan-kadin-evinde-olu-bulundu", "type": "boundary", "who": "Tespit Edilemeyen", "year": 2017}, "type": "Feature"}, {"geometry": {"coordinates": [29.911532, 40.798443], "type": "Point"}, "properties": {"city": "Kocaeli", "date": "17.01.2017", "death": "Ate\u015fli Silah", "name": "Aysun Bozcan", "reason": "Ba\u015fka bir kad\u0131n\u0131 korumak isterken", "req": "Yok", "source": "http://www.hurriyet.com.tr/uzman-cavus-dehset-sacti-40337567", "type": "boundary", "who": "Ablas\u0131n\u0131n Kocas\u0131", "year": 2017}, "type": "Feature"}, {"geometry": {"coordinates": [29.990611, 40.79544], "type": "Point"}, "properties": {"city": "Kocaeli", "date": "17.01.2017", "death": "Ate\u015fli Silah", "name": "Nurhan Yakt\u0131", "reason": "K\u0131z\u0131n\u0131 Korurken", "req": "Yok", "source": "http://www.hurriyet.com.tr/uzman-cavus-dehset-sacti-40337567", "type": "boundary", "who": "Damad\u0131", "year": 2017}, "type": "Feature"}, {"geometry": {"coordinates": [38.768253, 37.150684], "type": "Point"}, "properties": {"city": "\u015eanl\u0131urfa", "date": "22.01.2017", "death": "Ate\u015fli Silah", "name": "Dilek Yi\u011fit", "reason": "Kaza Kur\u015funu", "req": "Yok", "source": "http://www.haberler.com/dha-yurt-dugun-magandasi-3-cocuk-annesini-canindan-9188303-haberi/", "type": "boundary", "who": "Tespit Edilemeyen", "year": 2017}, "type": "Feature"}, {"geometry": {"coordinates": [28.344862, 37.191606], "type": "Point"}, "properties": {"city": "Mu\u011fla", "date": "23.01.2017", "death": "Tespit Edilemeyen", "name": "\u0130simsiz", "reason": "Tespit Edilemeyen", "req": "Bilinmiyor", "source": "http://www.gunes.com/yasam/sahilde-kadin-cesedi-bulundu-756371", "type": "boundary", "who": "Tespit Edilemeyen", "year": 2017}, "type": "Feature"}, {"geometry": {"coordinates": [30.67921, 36.862944], "type": "Point"}, "properties": {"city": "Antalya", "date": "24.01.2017", "death": "Tespit Edilemeyen", "name": "Emine \u00d6zkan", "reason": "Tespit Edilemeyen", "req": "Yok", "source": "http://www.haberci07.com/5-li-haberler/emine-ozkan/45560/", "type": "boundary", "who": "Tespit Edilemeyen", "year": 2017}, "type": "Feature"}, {"geometry": {"coordinates": [34.841714, 39.831999], "type": "Point"}, "properties": {"city": "Yozgat", "date": "27.01.2017", "death": "Ate\u015fi Silah", "name": "\u015e\u00fckran Turan", "reason": "Bo\u015fanma Talebi", "req": "Yok", "source": "http://www.cumhuriyet.com.tr/haber/turkiye/666689/Yozgat_ta_kadin_cinayeti__Bosanmak_isteyen_esini_oldurdu.html", "type": "boundary", "who": "Kocas\u0131", "year": 2017}, "type": "Feature"}, {"geometry": {"coordinates": [27.902216, 39.612397], "type": "Point"}, "properties": {"city": "Bal\u0131kesir", "date": "28.01.2017", "death": "Ate\u015fli Silah", "name": "Z.K.", "reason": "Bar\u0131\u015fmak \u0130stememesi", "req": "Yok", "source": "http://www.sondakikaturk.com.tr/asayis/karisini-oldurdu-engel-olmak-isteyen-komsusuna-kursun-yagdirdi-h22691.html", "type": "boundary", "who": "Kocas\u0131", "year": 2017}, "type": "Feature"}, {"geometry": {"coordinates": [38.761246, 37.177711], "type": "Point"}, "properties": {"city": "\u015eanl\u0131urfa", "date": "30.01.2017", "death": "Ate\u015fli Silah", "name": "Fatma Temu\u00e7in", "reason": "Tart\u0131\u015fma", "req": "Yok", "source": "http://www.hurriyet.com.tr/tartistigi-esini-tufekle-oldurdu-40350615", "type": "boundary", "who": "Kocas\u0131", "year": 2017}, "type": "Feature"}, {"geometry": {"coordinates": [26.562246, 41.690423], "type": "Point"}, "properties": {"city": "Edirne", "date": "23.01.2017", "death": "Tespit Edilemeyen", "name": "\u00d6.S.", "reason": "Tespit Edilemeyen", "req": "Yok", "source": "http://www.uzunkoprugazetesi.com.tr/damadinin-kizini-oldurdugunu-iddia-etti.html", "type": "boundary", "who": "Tespit Edilemeyen", "year": 2017}, "type": "Feature"}, {"geometry": {"coordinates": [29.020753, 41.087737], "type": "Point"}, "properties": {"city": "\u0130sstanbul ", "date": "12.02.2017", "death": "Ate\u015fi Silah", "name": "Cansu \u00c7.", "reason": "Ayr\u0131lma Talebi", "req": "Yok", "source": "http://www.milliyet.com.tr/17-yasindaki-cansu-nun-cinayetinde-gundem-2394740/", "type": "boundary", "who": "Eski Sevgilisi", "year": 2017}, "type": "Feature"}, {"geometry": {"coordinates": [30.665196, 36.839921], "type": "Point"}, "properties": {"city": "Antalya", "date": "19.02.2017", "death": "Ate\u015fli Silah", "name": "Cemile \u015eent\u00fcrk", "reason": "Ayr\u0131lma Talebi", "req": "Var", "source": "http://www.hurriyet.com.tr/kendisini-baska-kadinla-yatakta-basan-esini-10-gun-sonra-oldurdu-40370511?_sgm_source=40370511&_sgm_campaign=scn_a004850058058000&_sgm_action=click", "type": "boundary", "who": "Kocas\u0131", "year": 2017}, "type": "Feature"}, {"geometry": {"coordinates": [27.419382, 38.600908], "type": "Point"}, "properties": {"city": "Manisa", "date": "22.02.2017", "death": "Kesici Alet", "name": "Suriye Kupal", "reason": "Aldatma \u015e\u00fcphesi", "req": "Yok", "source": "http://www.milliyet.com.tr/alasehir-de-esi-ve-kizini-olduren-gundem-2400947/", "type": "boundary", "who": "Kocas\u0131", "year": 2017}, "type": "Feature"}, {"geometry": {"coordinates": [30.540744, 39.767655], "type": "Point"}, "properties": {"city": "Eski\u015fehir", "date": "22.02.2017", "death": "D\u00f6v\u00fclerek", "name": "Nil\u00fcfer \u015eenkaya", "reason": "Gasp", "req": "Yok", "source": "http://www.hurriyet.com.tr/dove-dove-oldurmuslerdi-kizi-da-hayatini-kaybetti-40374109", "type": "boundary", "who": "Tan\u0131mad\u0131\u011f\u0131 Birileri", "year": 2017}, "type": "Feature"}, {"geometry": {"coordinates": [27.849163, 39.663448], "type": "Point"}, "properties": {"city": "Bal\u0131kesir", "date": "27.02.2017", "death": "Kesici Alet", "name": "Elif Isparta", "reason": "Tespit Edilemeyen", "req": "Yok", "source": "http://www.milliyet.com.tr/dehset-ingilizce-ogretmeni-evinde-gundem-2403909/", "type": "boundary", "who": "Tespit Edilemeyen", "year": 2017}, "type": "Feature"}, {"geometry": {"coordinates": [27.118847, 38.474238], "type": "Point"}, "properties": {"city": "\u0130zmir", "date": "25.02.2017", "death": "Ate\u015fli Silah", "name": "Emine L.", "reason": "Tart\u0131\u015fma", "req": "Yok", "source": "http://www.milliyet.com.tr/izmir-de-pompali-tufek-dehseti-1-gundem-2403274/", "type": "boundary", "who": "Tespit Edilemeyen", "year": 2017}, "type": "Feature"}, {"geometry": {"coordinates": [29.041633, 40.191377], "type": "Point"}, "properties": {"city": "Bursa", "date": "31.03.2017", "death": "Ate\u015fli Silah", "name": "Ru\u015fen G\u00fcng\u00f6r", "reason": "K\u0131skan\u00e7l\u0131k", "req": "Yok", "source": "http://www.hurriyet.com.tr/bursada-yine-kadin-cinayeti-40413362", "type": "boundary", "who": "Kocas\u0131", "year": 2017}, "type": "Feature"}, {"geometry": {"coordinates": [29.014747, 41.058708], "type": "Point"}, "properties": {"city": "\u0130stanbul", "date": "29.03.2017", "death": "Kesici Alet", "name": "Amelia B.", "reason": "Tespit Edilemeyen", "req": "Yok", "source": "http://www.haberler.com/istanbul-da-esrarengiz-cinayetler-fuhus-yok-9432183-haberi/", "type": "boundary", "who": "Tespit Edilemeyen", "year": 2017}, "type": "Feature"}, {"geometry": {"coordinates": [28.943676, 41.039689], "type": "Point"}, "properties": {"city": "\u0130stanbul", "date": "29.03.2017", "death": "Kesici Alet", "name": "Hatice K.", "reason": "Tespit Edilemeyen", "req": "Yok", "source": "http://www.haberler.com/istanbul-da-esrarengiz-cinayetler-fuhus-yok-9432183-haberi/", "type": "boundary", "who": "Tespit Edilemeyen", "year": 2017}, "type": "Feature"}, {"geometry": {"coordinates": [35.295931, 37.007682], "type": "Point"}, "properties": {"city": "Adana", "date": "28.03.2017", "death": "Tespit Edilemeyen", "name": "Bilinmiyor", "reason": "Tespit Edilemeyen", "req": "Bilinmiyor", "source": "http://www.sabah.com.tr/yasam/2017/03/28/golde-mini-elbiseli-kadin-cesedi-bulundu", "type": "boundary", "who": "Tespit Edilemeyen", "year": 2017}, "type": "Feature"}, {"geometry": {"coordinates": [33.77897, 41.38029], "type": "Point"}, "properties": {"city": "Kastomonu", "date": "06.03.2017 ", "death": "Asma", "name": "Nevin G\u00fcltekin", "reason": "Tespit Edilemeyen", "req": "Bilinmiyor", "source": "http://www.karar.com/guncel-haberler/kastamonuda-15-gundur-kayip-kadin-olu-bulundu-408951#", "type": "boundary", "who": "Tespit Edilemeyen", "year": 2017}, "type": "Feature"}, {"geometry": {"coordinates": [29.94702, 39.406856], "type": "Point"}, "properties": {"city": "K\u00fctahya", "date": "13.03.2017", "death": "Asma", "name": "Cemile Tunal\u0131", "reason": "Tespit Edilemeyen", "req": "Yok", "source": "http://www.ensonhaber.com/kutahyadaki-kayip-kadinin-cesedi-bulundu-2017-03-13.html", "type": "boundary", "who": "Tespit Edilemeyen", "year": 2017}, "type": "Feature"}, {"geometry": {"coordinates": [30.55529, 38.11128], "type": "Point"}, "properties": {"city": "K\u0131br\u0131s", "date": "19.04.2017", "death": "Kesici Alet", "name": "Burcu Okumu\u015f", "reason": "Ayr\u0131lma Talebi", "req": "Yok", "source": "http://www.milliyet.com.tr/korkunc-burcu-yu-o-siirdeki-gibi-gundem-2435096/", "type": "boundary", "who": "Kocas\u0131", "year": 2017}, "type": "Feature"}, {"geometry": {"coordinates": [27.098827, 38.407171], "type": "Point"}, "properties": {"city": "\u0130zmir", "date": "18.04.2017", "death": "Tespit Edilemeyen", "name": "P\u0131nar T.", "reason": "Tespit Edilemeyen", "req": "Yok", "source": "http://www.milliyet.com.tr/koca-siddetinden-kacip-gundem-2434691/", "type": "boundary", "who": "Tespit Edilemeyen", "year": 2017}, "type": "Feature"}, {"geometry": {"coordinates": [28.973706, 41.023673], "type": "Point"}, "properties": {"city": "\u0130stanbul", "date": "01.03.2017", "death": "Ate\u015fli Silah", "name": "Ceylan Timuro\u011flu", "reason": "Kendi Hayat\u0131na Karar Verdi\u011fi \u0130\u00e7in", "req": "Yok", "source": "http://www.mynet.com/haber/yasam/ceylan-timuroglunu-olduren-bakin-kim-cikti-2906779-1http://www.milliyet.com.tr/kiz-kardesi-ceylan-i-olduren-gundem-2577352/", "type": "boundary", "who": "Abisi", "year": 2017}, "type": "Feature"}, {"geometry": {"coordinates": [27.123852, 38.400164], "type": "Point"}, "properties": {"city": "\u0130zmir", "date": "06.03.2017", "death": "Darp", "name": "Makbule \u00d6nta\u015f", "reason": "Tespit Edilemeyen", "req": "Yok", "source": "http://www.hurriyet.com.tr/anneannesini-doverek-oldurdu-40386131", "type": "boundary", "who": "Torunu", "year": 2017}, "type": "Feature"}, {"geometry": {"coordinates": [30.747278, 36.925006], "type": "Point"}, "properties": {"city": "Antalya", "date": "07.03.2017", "death": "Ate\u015fli Silah", "name": "Sinem \u00d6zl\u00fc", "reason": "Tespit Edilemeyen", "req": "Yok", "source": "http://www.milliyet.com.tr/8-mart-ta-bosandigi-karisini-1-gundem-2409305/", "type": "boundary", "who": "Eski Kocas\u0131", "year": 2017}, "type": "Feature"}, {"geometry": {"coordinates": [29.017609, 40.209395], "type": "Point"}, "properties": {"city": "Bursa", "date": "10.03.2017", "death": "Kesici Alet", "name": "Deniz Ad\u0131yaman", "reason": "K\u0131skan\u00e7l\u0131k", "req": "Yok", "source": "http://www.superhaber.tv/3-aylik-karisini-bicaklayarak-oldurdu-44063-haber", "type": "boundary", "who": "Kocas\u0131", "year": 2017}, "type": "Feature"}, {"geometry": {"coordinates": [27.426868, 36.998185], "type": "Point"}, "properties": {"city": "Bodrum", "date": "09.03.2017", "death": "Kesici Alet", "name": "Gizem Olgun", "reason": "K\u0131skan\u00e7l\u0131k", "req": "Yok", "source": "https://www.vatandanhaber.com/guncel/koca-vahseti-eski-esinin-bogazini-bicakla-kesti-h35635.htmlhttp://www.milliyet.com.tr/bodrum-da-bosandigi-esini-olduren-gundem-2577094/", "type": "boundary", "who": "Eski Kocas\u0131", "year": 2017}, "type": "Feature"}, {"geometry": {"coordinates": [37.363148, 37.025483], "type": "Point"}, "properties": {"city": "Gaziantep", "date": "11.03.2017", "death": "Ate\u015fli Silah", "name": "Elif Y\u00fcrek", "reason": "K\u0131skan\u00e7l\u0131k", "req": "Yok", "source": "http://www.hurriyet.com.tr/yurek-dayanmaz-23-yasindaki-kadini-ve-3-yasindaki-kizini-oldurdu-40392252", "type": "boundary", "who": "Eski Kocas\u0131", "year": 2017}, "type": "Feature"}, {"geometry": {"coordinates": [28.958691, 41.02067], "type": "Point"}, "properties": {"city": "\u0130stanbul", "date": "15.03.2017", "death": "Ate\u015fi Silah", "name": "T\u00fcrkan Tankut", "reason": "Tespit Edilemeyen", "req": "Var", "source": "http://www.haberturk.com/gundem/haber/1427487-sariyerde-bir-kadin-eski-kocasi-tarafindan-olduruldu", "type": "boundary", "who": "Eski Kocas\u0131", "year": 2017}, "type": "Feature"}, {"geometry": {"coordinates": [36.544874, 40.346983], "type": "Point"}, "properties": {"city": "Tokat", "date": "17.03.2017", "death": "Ate\u015fli Silah", "name": "Yeliz Yaprak", "reason": "Ayr\u0131lma Talebi", "req": "Yok", "source": "https://www.evrensel.net/haber/312619/tokatta-kadin-cinayeti-imam-nikahli-esini-oldurdu", "type": "boundary", "who": "Sevgilisi", "year": 2017}, "type": "Feature"}, {"geometry": {"coordinates": [36.907079, 37.546781], "type": "Point"}, "properties": {"city": "Kahramanmara\u015f", "date": "19.03.2017", "death": "Kesici Alet", "name": "Yasemin Pak", "reason": "Tart\u0131\u015fma", "req": "Yok", "source": "http://www.egehaber.com/gundem/kadin-cinayetleri-durmak-bilmiyor-h151746.html", "type": "boundary", "who": "Sevgilisi", "year": 2017}, "type": "Feature"}, {"geometry": {"coordinates": [29.065657, 40.148334], "type": "Point"}, "properties": {"city": "Bursa", "date": "19.03.2017", "death": "Ate\u015fli Silah", "name": "Sevim \u00c7edik", "reason": "Tart\u0131\u015fma", "req": "Yok", "source": "http://www.arti49.com/tartistigi-3-cocuk-annesi-ablasini-oldurdu-737371h.htm", "type": "boundary", "who": "Erkek Karde\u015fi", "year": 2017}, "type": "Feature"}, {"geometry": {"coordinates": [28.984717, 41.097747], "type": "Point"}, "properties": {"city": "\u0130stanbul", "date": "20.03.2017", "death": "Bo\u011fma", "name": "Musttrariy K.", "reason": "Tart\u0131\u015fma", "req": "Yok", "source": "http://www.gazetevatan.com/fuhus-icin-anlastigi-kadini-bogarak-oldurdu-1049912-yasam/", "type": "boundary", "who": "Tan\u0131d\u0131\u011f\u0131 Birisi", "year": 2017}, "type": "Feature"}, {"geometry": {"coordinates": [27.100829, 38.414178], "type": "Point"}, "properties": {"city": "\u0130zmir", "date": "21.03.2017", "death": "Kesici Alet", "name": "Fulya G\u00fclmez", "reason": "Tespit Edilemeyen", "req": "Yok", "source": "http://www.sabah.com.tr/yasam/2017/03/21/izmirde-genc-bir-kadin-bicakla-olduruldu", "type": "boundary", "who": "Tan\u0131d\u0131\u011f\u0131 Birisi", "year": 2017}, "type": "Feature"}, {"geometry": {"coordinates": [37.342127, 37.048506], "type": "Point"}, "properties": {"city": "Gaziantep", "date": "18.03.2017", "death": "Ate\u015fli Silah", "name": "Emine Kele\u015f", "reason": "Namus", "req": "Yok", "source": "http://www.posta.com.tr/gaziantep-te-kardesi-tarafindan-vurulan-kadin-oldu-haberi-1278341", "type": "boundary", "who": "Abisi", "year": 2017}, "type": "Feature"}, {"geometry": {"coordinates": [37.420205, 37.015473], "type": "Point"}, "properties": {"city": "Gaziantep", "date": "21.03.2017", "death": "Ate\u015fli Silah", "name": "Mine Gen\u00e7", "reason": "Tespit Edilemeyen", "req": "Yok", "source": "http://ilerihaber.org/icerik/gaziantepte-kadin-cinayeti-69572.html", "type": "boundary", "who": "Eski Kocas\u0131", "year": 2017}, "type": "Feature"}, {"geometry": {"coordinates": [32.840917, 39.909078], "type": "Point"}, "properties": {"city": "Ankara", "date": "22.03.2017", "death": "Ate\u015fli Silah, Kesici Alet", "name": "\u015eermin Aslan", "reason": "Tart\u0131\u015fma", "req": "Yok", "source": "https://www.haber3.com/guncel/3-sayfa/eski-karisini-ve-onun-kocasini-oldurup-intihar-etti-haberi-4594509", "type": "boundary", "who": "Eski Kocas\u0131", "year": 2017}, "type": "Feature"}, {"geometry": {"coordinates": [30.567219, 38.71791], "type": "Point"}, "properties": {"city": "Afyonkarahisar", "date": "26.03.2017", "death": "Ate\u015fli Silah", "name": "Ebru Dere/G\u00fcrp\u0131nar", "reason": "Tart\u0131\u015fma", "req": "Yok", "source": "https://www.evrensel.net/haber/313601/yine-kadin-cinayeti-ayri-yasadigi-esi-tarafindan-olduruldu", "type": "boundary", "who": "Eski Kocas\u0131", "year": 2017}, "type": "Feature"}, {"geometry": {"coordinates": [36.184746, 36.192359], "type": "Point"}, "properties": {"city": "Hatay", "date": "28.03.2017", "death": "Kesici Alet", "name": "Esra Yal\u00e7\u0131n", "reason": "Tart\u0131\u015fma", "req": "Yok", "source": "http://www.sozcu.com.tr/2017/gundem/eski-esini-ve-kizini-oldurdu-ardindan-intihara-kalkisti-1761511/", "type": "boundary", "who": "Eski Kocas\u0131", "year": 2017}, "type": "Feature"}, {"geometry": {"coordinates": [29.036769, 41.067717], "type": "Point"}, "properties": {"city": "\u0130stanbul", "date": "27.03.2017", "death": "Tespit Edilemeyen", "name": "Hatice Kemal", "reason": "Tespit Edilemeyen", "req": "Yok", "source": "http://www.dha.com.tr/suriyeli-kadinin-cesedi-halicten-cikti--_1485688.html", "type": "boundary", "who": "Tespit Edilemeyen", "year": 2017}, "type": "Feature"}, {"geometry": {"coordinates": [27.409372, 38.603911], "type": "Point"}, "properties": {"city": "Manisa", "date": "28.03.2017", "death": "Kesici Alet", "name": "Gamze K.", "reason": "K\u0131skan\u00e7l\u0131k", "req": "Yok", "source": "http://www.haberturk.com/gundem/haber/1441947-manisada-sokak-ortasinda-cinayet", "type": "boundary", "who": "Tan\u0131d\u0131\u011f\u0131 Birisi", "year": 2017}, "type": "Feature"}, {"geometry": {"coordinates": [35.83459, 40.65195], "type": "Point"}, "properties": {"city": "Amasya", "date": "05.12.2017", "death": "Kesici Alet", "name": "Ay\u015fe Z.", "reason": "Tart\u0131\u015fma", "req": "Yok", "source": "http://www.gazetevatan.com/bir-kadin-cinayeti-daha--1123937-yasam/", "type": "boundary", "who": "Kocas\u0131", "year": 2017}, "type": "Feature"}, {"geometry": {"coordinates": [27.482027, 41.025687], "type": "Point"}, "properties": {"city": "Tekirda\u011f", "date": "05.12.2017", "death": "Ate\u015fli Silah", "name": "Ay\u015fe \u00d6zt\u00fcrk", "reason": "Reddedilme", "req": "Yok", "source": "https://www.evrensel.net/haber/339774/tekirdagda-kadin-cinayeti-ise-giderken-olduruldu", "type": "boundary", "who": "Tan\u0131d\u0131\u011f\u0131 Birileri", "year": 2017}, "type": "Feature"}, {"geometry": {"coordinates": [41.172955, 37.883901], "type": "Point"}, "properties": {"city": "Batman", "date": "05.12.2017", "death": "Ate\u015fli Silah", "name": "S.K.", "reason": "Tespit Edilemeyen", "req": "Yok", "source": "http://www.haberkolay.net/haber/batmanda-yasak-ask-cinayeti-dostunu-ve-kendisini-oldurdu-244902.html", "type": "boundary", "who": "Sevgilisi", "year": 2017}, "type": "Feature"}, {"geometry": {"coordinates": [28.973706, 41.016666], "type": "Point"}, "properties": {"city": "\u0130stanbul", "date": "09.12.2017", "death": "Ate\u015fli Silah", "name": "Mercan Karaer", "reason": "Tespit Edilemeyen", "req": "Yok", "source": "http://gazetekarinca.com/2017/12/istanbulda-bir-kadin-oglu-tarafindan-olduruldu/", "type": "boundary", "who": "O\u011flu, Karde\u015fi", "year": 2017}, "type": "Feature"}, {"geometry": {"coordinates": [29.047639, 40.160346], "type": "Point"}, "properties": {"city": "Bursa", "date": "10.12.2017", "death": "Ate\u015fli Silah", "name": "Nafiye \u015eahin", "reason": "Tart\u0131\u015fma", "req": "Yok", "source": "https://www.ntv.com.tr/turkiye/bursada-kadin-cinayeti-tartistigi-kisi-tarafindan-olduruldu,J8ZFrLY1pUmn4KP6Pua9Kg", "type": "boundary", "who": "Tan\u0131d\u0131\u011f\u0131 Birisi", "year": 2017}, "type": "Feature"}, {"geometry": {"coordinates": [29.993614, 40.820465], "type": "Point"}, "properties": {"city": "Kocaeli", "date": "11.12.2017", "death": "Ate\u015fli Silah", "name": "Suna Ocakverdi", "reason": "Tart\u0131\u015fma", "req": "Yok", "source": "https://www.yenialanya.com/asayis/karisini-oldurdukten-sonra-cocuklari-agabeyine-birakip-polisi-bekledi-h300484.html", "type": "boundary", "who": "Kocas\u0131", "year": 2017}, "type": "Feature"}, {"geometry": {"coordinates": [35.452479, 38.753953], "type": "Point"}, "properties": {"city": "Kayseri", "date": "13.12.2017", "death": "Kesici Alet", "name": "Safiye Ad\u0131yaman", "reason": "Tart\u0131\u015fma", "req": "Yok", "source": "http://www.karar.com/guncel-haberler/son-dakika-kayseride-cinnet-getiren-baba-esi-ve-cocuklarini-oldurdu-688653", "type": "boundary", "who": "Kocas\u0131", "year": 2017}, "type": "Feature"}, {"geometry": {"coordinates": [35.480507, 38.717917], "type": "Point"}, "properties": {"city": "Kayseri", "date": "13.12.2017", "death": "Kesici Alet", "name": "Selenay Ad\u0131yaman", "reason": "Tespit Edilemeyen", "req": "Yok", "source": "http://www.karar.com/guncel-haberler/son-dakika-kayseride-cinnet-getiren-baba-esi-ve-cocuklarini-oldurdu-688653", "type": "boundary", "who": "Babas\u0131", "year": 2017}, "type": "Feature"}, {"geometry": {"coordinates": [35.508535, 38.732932], "type": "Point"}, "properties": {"city": "Kayseri", "date": "13.12.2017", "death": "Kesici Alet", "name": "Nazl\u0131 Nur Ad\u0131yaman", "reason": "Tespit Edilemeyen", "req": "Yok", "source": "http://www.karar.com/guncel-haberler/son-dakika-kayseride-cinnet-getiren-baba-esi-ve-cocuklarini-oldurdu-688653", "type": "boundary", "who": "Babas\u0131", "year": 2017}, "type": "Feature"}, {"geometry": {"coordinates": [36.978191, 39.789379], "type": "Point"}, "properties": {"city": "Sivas", "date": "13.12.2017", "death": "Ate\u015fli Silah", "name": "Meryem K.", "reason": "Tespit Edilemeyen", "req": "Yok", "source": "https://www.yenialanya.com/asayis/karisini-olduren-polis-kendi-canina-da-kiydi-geride-2-cocuk-kaldi-h300864.html", "type": "boundary", "who": "Kocas\u0131", "year": 2017}, "type": "Feature"}, {"geometry": {"coordinates": [41.94558, 37.92869], "type": "Point"}, "properties": {"city": "Siirt", "date": "17.12.2017", "death": "Ate\u015fli Silah", "name": "G\u00fcl\u00e7i\u00e7ek Seyhan", "reason": "Belirtilmemi\u015f", "req": "Yok", "source": "http://www.milliyet.com.tr/siirt-te-5-cocuk-annesi-kadinin-olu-siirt-yerelhaber-2472985/", "type": "boundary", "who": "Kocas\u0131", "year": 2017}, "type": "Feature"}, {"geometry": {"coordinates": [27.146875, 38.452216], "type": "Point"}, "properties": {"city": "\u0130zmir", "date": "19.12.2017", "death": "Kesici Alet", "name": "Funda Turan", "reason": "Tart\u0131\u015fma", "req": "Yok", "source": "http://www.milligazete.com.tr/haber/1440051/bicaklanan-kadin-oldu#", "type": "boundary", "who": "Sevgilisi", "year": 2017}, "type": "Feature"}, {"geometry": {"coordinates": [36.166728, 36.159326], "type": "Point"}, "properties": {"city": "Hatay", "date": "23.12.2017", "death": "Kesici Alet", "name": "Nurcan Yolcu", "reason": "Reddedilme", "req": "Yok", "source": "http://www.haberturk.com/hatay-da-eski-esi-tarafindan-oldurulen-kadinin-tabutunu-kadinlar-tasidi-1767342", "type": "boundary", "who": "Eski Kocas\u0131", "year": 2017}, "type": "Feature"}, {"geometry": {"coordinates": [30.54609, 37.78316], "type": "Point"}, "properties": {"city": "Isparta", "date": "24.12.2017", "death": "Tespit Edilemeyen", "name": "Serap Kocag\u00f6z", "reason": "Tespit Edilemeyen", "req": "Yok", "source": "http://www.bomba32.com/haber/isparta/45-yasindaki-kadin-evinde-olu-bulundu/23068.html", "type": "boundary", "who": "Tespit Edilemeyen", "year": 2017}, "type": "Feature"}, {"geometry": {"coordinates": [39.471229, 39.730102], "type": "Point"}, "properties": {"city": "Erzincan", "date": "10.12.2017", "death": "Ate\u015fli Silah", "name": "Z.K.", "reason": "Kaza", "req": "Yok", "source": "http://www.milliyet.com.tr/tufekle-saka-yaparken-amcasinin-kizini-erzincan-yerelhaber-2458091/", "type": "boundary", "who": "Akrabas\u0131", "year": 2017}, "type": "Feature"}, {"geometry": {"coordinates": [34.954853, 40.541241], "type": "Point"}, "properties": {"city": "\u00c7orum", "date": "12.12.2017", "death": "Ate\u015fli Silah", "name": "Emine K.", "reason": "Kaza", "req": "Yok", "source": "https://www.ntv.com.tr/turkiye/tufekle-oynayan-12-yasindaki-cocuk-babaannesini-vurdu,pB-LuYN_H0GJp1GNqZRH9g", "type": "boundary", "who": "Torunu", "year": 2017}, "type": "Feature"}, {"geometry": {"coordinates": [32.459702, 37.829849], "type": "Point"}, "properties": {"city": "Konya", "date": "10.12.2017", "death": "Ate\u015fli Silah", "name": "Figen A.", "reason": "Kaza", "req": "Yok", "source": "https://www.birgun.net/haber-detay/7-yasindaki-cocuk-pompali-tufekle-oynarken-annesini-oldurdu-194871.html", "type": "boundary", "who": "O\u011flu", "year": 2017}, "type": "Feature"}, {"geometry": {"coordinates": [27.115844, 38.383147], "type": "Point"}, "properties": {"city": "\u0130zmir", "date": "18.12.2017", "death": "Kesici Alet", "name": "Z\u00fclal T\u00fct\u00fcnc\u00fc", "reason": "Tart\u0131\u015fma", "req": "Yok", "source": "http://www.hurriyet.com.tr/universite-ogrencisinden-telefon-kiz-arkadasimi-oldurdum-40681538?_sgm_source=40681538&_sgm_campaign=scn_a004850058058000&_sgm_action=click", "type": "boundary", "who": "Sevgilisi", "year": 2017}, "type": "Feature"}, {"geometry": {"coordinates": [35.278914, 37.031706], "type": "Point"}, "properties": {"city": "Adana", "date": "19.12.2017", "death": "Ate\u015fli Silah", "name": "Sibel K\u0131l\u0131\u00e7l\u0131", "reason": "Tart\u0131\u015fma", "req": "Yok", "source": "http://www.milliyet.com.tr/adana-da-kadin-cinayeti-adana-yerelhaber-2473531/", "type": "boundary", "who": "Sevgilisi", "year": 2017}, "type": "Feature"}, {"geometry": {"coordinates": [35.308944, 36.962637], "type": "Point"}, "properties": {"city": "Adana", "date": "19.12.2017", "death": "Kesici Alet", "name": "Neslihan Apa", "reason": "Tart\u0131\u015fma", "req": "Yok", "source": "https://www.cnnturk.com/turkiye/adanadaki-kayip-kadinin-katili-tir-soforu-cikti-cesedini-gebzede-tarlaya-gommus", "type": "boundary", "who": "Tan\u0131d\u0131\u011f\u0131 Birisi", "year": 2017}, "type": "Feature"}, {"geometry": {"coordinates": [34.915814, 40.591291], "type": "Point"}, "properties": {"city": "\u00c7orum", "date": "29.12.2017", "death": "Ate\u015fli Silah", "name": "Hatice Y\u0131lmaz", "reason": "Bo\u015fanma Talebi", "req": "Yok", "source": "http://www.milliyet.com.tr/sokak-ortasinda-once-esini-gundem-2582011/", "type": "boundary", "who": "Kocas\u0131", "year": 2017}, "type": "Feature"}, {"geometry": {"coordinates": [35.35499, 37.027702], "type": "Point"}, "properties": {"city": "Adana", "date": "26.12.2017", "death": "Kesici Alet", "name": "Gamze \u0130lhan", "reason": "Tart\u0131\u015fma", "req": "Yok", "source": "http://www.milliyet.com.tr/genc-kadini-3-bin-lira-icin-18-gundem-2579720/", "type": "boundary", "who": "Eski Kocas\u0131", "year": 2017}, "type": "Feature"}, {"geometry": {"coordinates": [40.252742, 37.948474], "type": "Point"}, "properties": {"city": "Diyarbak\u0131r", "date": "25.12.2017", "death": "Ate\u015fli Silah", "name": "Rojbin \u0130lhan", "reason": "Tart\u0131\u015fma, Aldatma \u015e\u00fcphesi", "req": "Yok", "source": "http://www.milliyet.com.tr/gece-esini-oldurdu-sabah-olay-gundem-2579164/http://www.milliyet.com.tr/esini-oldurup-gazetecilere-gundem-2603656/", "type": "boundary", "who": "Kocas\u0131", "year": 2017}, "type": "Feature"}, {"geometry": {"coordinates": [31.830866, 41.439889], "type": "Point"}, "properties": {"city": "Zonguldak", "date": "24.12.2017", "death": "Kesici Alet", "name": "Dilek Akyol", "reason": "Para", "req": "Yok", "source": "http://www.milliyet.com.tr/gelini-ve-kayinvalidesini-olduren-gundem-2578577/", "type": "boundary", "who": "Tan\u0131d\u0131\u011f\u0131 Birisi", "year": 2017}, "type": "Feature"}, {"geometry": {"coordinates": [31.752788, 41.489939], "type": "Point"}, "properties": {"city": "Zonguldak", "date": "24.12.2017", "death": "Kesici Alet", "name": "Fatma Akyol", "reason": "Para", "req": "Yok", "source": "http://www.milliyet.com.tr/gelini-ve-kayinvalidesini-olduren-gundem-2578577/", "type": "boundary", "who": "Tan\u0131d\u0131\u011f\u0131 Birisi", "year": 2017}, "type": "Feature"}, {"geometry": {"coordinates": [28.386904, 37.209624], "type": "Point"}, "properties": {"city": "Mu\u011fla", "date": "24.12.2017", "death": "Ate\u015fli Silah", "name": "\u015e\u00fckran Ayr\u0131k\u0131sa", "reason": "Tart\u0131\u015fma", "req": "Yok", "source": "http://www.milliyet.com.tr/kendinden-ayrilmak-isteyen-gundem-2578533/", "type": "boundary", "who": "Sevgilisi", "year": 2017}, "type": "Feature"}, {"geometry": {"coordinates": [29.401822, 38.708859], "type": "Point"}, "properties": {"city": "U\u015fak", "date": "22.12.2017", "death": "Ate\u015fi Silah", "name": "Nadire Metin", "reason": "Tespit Edilemeyen", "req": "Yok", "source": "http://www.milliyet.com.tr/bir-aile-boyle-yok-oldu-kan-gundem-2577789/", "type": "boundary", "who": "O\u011flu", "year": 2017}, "type": "Feature"}, {"geometry": {"coordinates": [27.117846, 38.428192], "type": "Point"}, "properties": {"city": "\u0130zmir", "date": "27.08.2017", "death": "Darp, Vurucu Alet", "name": "Serap Topuzo\u011flu", "reason": "Tart\u0131\u015fma", "req": "Yok", "source": "http://www.milliyet.com.tr/annesini-balta-ile-olduren-gundem-2575627/", "type": "boundary", "who": "O\u011flu", "year": 2017}, "type": "Feature"}, {"geometry": {"coordinates": [29.001734, 41.044694], "type": "Point"}, "properties": {"city": "\u0130stanbul", "date": "03.05.2017", "death": "Ate\u015fli Silah", "name": "M\u00fczeyyen K.", "reason": "Tart\u0131\u015fma", "req": "Yok", "source": "http://www.marmaragazetesi.com/once-sevgilisini-sonra-kendini-vurdu-145820h.htm", "type": "boundary", "who": "Sevgilisi", "year": 2017}, "type": "Feature"}, {"geometry": {"coordinates": [34.811684, 39.824992], "type": "Point"}, "properties": {"city": "Yozgat", "date": "01.05.2017", "death": "Vurucu Alet", "name": "Halime D.", "reason": "Tart\u0131\u015fma", "req": "Yok", "source": "http://www.birgun.net/haber-detay/genc-kadin-kardesi-tarafindan-olduruldu-sinirlendim-vurdum-157648.html", "type": "boundary", "who": "Erkek Karde\u015fi", "year": 2017}, "type": "Feature"}, {"geometry": {"coordinates": [29.009742, 41.074724], "type": "Point"}, "properties": {"city": "\u0130stanbul", "date": "04.05.2017", "death": "Kesici Alet", "name": "Dildora \u0130monova", "reason": "Tespit Edilemeyen", "req": "Yok", "source": "http://www.haberturk.com/gundem/haber/1482957-istanbulda-copteki-bavuldan-kadin-cesedi-cikti", "type": "boundary", "who": "Tespit Edilemeyen", "year": 2017}, "type": "Feature"}, {"geometry": {"coordinates": [28.97771, 41.095745], "type": "Point"}, "properties": {"city": "\u0130stanbul", "date": "04.05.2017", "death": "Ate\u015fli Silah", "name": "F.\u00c7.", "reason": "Ayr\u0131lma Talebi", "req": "Yok", "source": "https://www.haberler.com/dha-istanbul-7-aylik-esini-sokak-ortasinda-pompali-9574105-haberi/", "type": "boundary", "who": "Kocas\u0131", "year": 2017}, "type": "Feature"}, {"geometry": {"coordinates": [29.086678, 40.189375], "type": "Point"}, "properties": {"city": "Bursa", "date": "05.05.2017", "death": "Ate\u015fli Silah", "name": "Nil\u00fcfer Acar", "reason": "Tart\u0131\u015fma", "req": "Yok", "source": "https://www.haber24.com/gundem/lisede-ask-cinneti-sevgilisini-oldurdu-intihar-girisiminde-bulundu-h621144.html", "type": "boundary", "who": "Sevgilisi", "year": 2017}, "type": "Feature"}, {"geometry": {"coordinates": [27.175904, 38.441205], "type": "Point"}, "properties": {"city": "\u0130zmir", "date": "06.05.2017", "death": "Bo\u011fma", "name": "\u00dcsk\u00fcdar Sam", "reason": "Tart\u0131\u015fma", "req": "Yok", "source": "https://www.haberler.com/bosandigi-esini-telle-bogarak-oldurdu-9582629-haberi/", "type": "boundary", "who": "Eski Kocas\u0131", "year": 2017}, "type": "Feature"}, {"geometry": {"coordinates": [35.506533, 38.676876], "type": "Point"}, "properties": {"city": "Kayseri", "date": "10.05.2017", "death": "Ate\u015fli Silah", "name": "Y\u00fcksel Yavuz", "reason": "Tart\u0131\u015fma", "req": "Yok", "source": "http://www.arti49.com/intihar-etti-sanilan-kadin-oldurulmus-793677h.htm", "type": "boundary", "who": "Sevgilisi", "year": 2017}, "type": "Feature"}, {"geometry": {"coordinates": [27.149878, 38.405169], "type": "Point"}, "properties": {"city": "\u0130zmir", "date": "10.05.2017", "death": "Ate\u015fli Silah", "name": "Safiye K.", "reason": "Tart\u0131\u015fma", "req": "Yok", "source": "http://www.hurriyet.com.tr/yine-kadin-cinayeti-bu-kez-esinin-yegeni-oldurdu-40453986", "type": "boundary", "who": "Akraba", "year": 2017}, "type": "Feature"}, {"geometry": {"coordinates": [28.978711, 41.056706], "type": "Point"}, "properties": {"city": "\u0130stanbul", "date": "23.05.2017", "death": "Tespit Edilemeyen", "name": "Sevgi \u0130zmirli", "reason": "Tespit Edilemeyen", "req": "Yok", "source": "http://www.mynet.com/haber/yasam/kadikoyde-yangin-cikan-evde-kadin-cesedi-bulundu-3054388-1", "type": "boundary", "who": "Tespit Edilemeyen", "year": 2017}, "type": "Feature"}, {"geometry": {"coordinates": [31.95604, 41.21894], "type": "Point"}, "properties": {"city": "Devrek", "date": "23.05.2017", "death": "Tespit Edilemeyen", "name": "L.A.", "reason": "Tespit Edilemeyen", "req": "Yok", "source": "http://www.ereglionder.com.tr/guncel/supheli-olum-kadin-cesedi-bulundu-h72302.html", "type": "boundary", "who": "Tan\u0131d\u0131\u011f\u0131 Birisi", "year": 2017}, "type": "Feature"}, {"geometry": {"coordinates": [37.466788, 41.05945], "type": "Point"}, "properties": {"city": "Fatsa", "date": "23.05.2017", "death": "Kesici Alet", "name": "Elene Gokadze", "reason": "Tespit Edilemeyen", "req": "Yok", "source": "http://www.ahaber.com.tr/yasam/2017/05/23/gurcu-kadin-bogazi-kesilerek-olduruldu", "type": "boundary", "who": "Tespit Edilemeyen", "year": 2017}, "type": "Feature"}, {"geometry": {"coordinates": [27.824512, 37.864894], "type": "Point"}, "properties": {"city": "Ayd\u0131n", "date": "21.05.2017", "death": "Ate\u015fli Silah", "name": "Ay\u015fe \u00c7.", "reason": "Husumet", "req": "Yok", "source": "http://www.haberturk.com/gundem/haber/1502451-aydinda-kadin-cinayeti#", "type": "boundary", "who": "Tan\u0131d\u0131\u011f\u0131 Birisi", "year": 2017}, "type": "Feature"}, {"geometry": {"coordinates": [29.015607, 40.187373], "type": "Point"}, "properties": {"city": "Bursa", "date": "21.05.2017", "death": "Ate\u015fli Silah", "name": "Hatice Eren", "reason": "Tart\u0131\u015fma", "req": "Yok", "source": "http://www.karar.com/guncel-haberler/bursada-koca-vahseti-esinin-kafasina-ates-ederek-oldurdu-488683#", "type": "boundary", "who": "Kocas\u0131", "year": 2017}, "type": "Feature"}, {"geometry": {"coordinates": [34.659175, 36.787868], "type": "Point"}, "properties": {"city": "Mersin", "date": "20.05.2017", "death": "Tespit Edilemeyen", "name": "Elmas Selbes", "reason": "Tespit Edilemeyen", "req": "Yok", "source": "http://www.milliyet.com.tr/sabah-adana-da-kayip-muracaati-yapildi-mersin-yerelhaber-2054524/", "type": "boundary", "who": "Tespit Edilemeyen", "year": 2017}, "type": "Feature"}, {"geometry": {"coordinates": [30.752283, 36.885967], "type": "Point"}, "properties": {"city": "Antalya", "date": "18.05.2017", "death": "Ate\u015fli Silah", "name": "Nurcan Demir\u00f6z\n", "reason": "Tart\u0131\u015fma", "req": "Yok", "source": "http://t24.com.tr/haber/once-sevgilisiyle-tartisti-sonra-evde-dinamit-patlatti-iki-kisi-oldu,404823", "type": "boundary", "who": "Sevgilisi", "year": 2017}, "type": "Feature"}, {"geometry": {"coordinates": [32.471714, 37.822842], "type": "Point"}, "properties": {"city": "Konya", "date": "17.05.2017", "death": "Ate\u015fli Silah", "name": "Fatma Y\u0131ld\u0131z", "reason": "K\u0131z\u0131n\u0131\u00a0Korurken", "req": "Yok", "source": "http://www.hurriyet.com.tr/son-dakika-esrarengiz-olay-bir-evde-3-ceset-40460632", "type": "boundary", "who": "Eski Damad\u0131", "year": 2017}, "type": "Feature"}, {"geometry": {"coordinates": [27.149878, 38.440204], "type": "Point"}, "properties": {"city": "\u0130zmir", "date": "16.05.2017", "death": "Vurucu Alet", "name": "I\u015f\u0131k \u0130kizo\u011flu", "reason": "Tart\u0131\u015f\u00b5a", "req": "Yok", "source": "http://t24.com.tr/haber/izmirde-kadin-cinayeti-sikayetinin-uzerinden-saatlar-gecmeden-olduruldu,404547", "type": "boundary", "who": "Eski Kocas\u0131", "year": 2017}, "type": "Feature"}, {"geometry": {"coordinates": [27.146875, 38.408172], "type": "Point"}, "properties": {"city": "\u0130zmir", "date": "13.05.2017", "death": "Ate\u015fli Silah", "name": "Ne\u015fe Karaca", "reason": "Kaza", "req": "Yok", "source": "http://www.turkiyegazetesi.com.tr/gundem/473027.aspx", "type": "boundary", "who": "Tan\u0131mad\u0131\u011f\u0131 Birileri", "year": 2017}, "type": "Feature"}, {"geometry": {"coordinates": [43.073803, 39.681771], "type": "Point"}, "properties": {"city": "A\u011fr\u0131", "date": "01.04.2017", "death": "Ate\u015fli Silah", "name": "Nuriye Karao\u011flan", "reason": "Tespit Edilemeyen", "req": "Yok", "source": "http://www.posta.com.tr/agri-da-cinnet-getiren-genc-anne-ve-babasini-oldurup-intihar-etti-haberi-1282560", "type": "boundary", "who": "O\u011flu", "year": 2017}, "type": "Feature"}, {"geometry": {"coordinates": [26.590274, 41.71745], "type": "Point"}, "properties": {"city": "Edirne", "date": "04.04.2017", "death": "Ate\u015fli Silah", "name": "Ya\u015fariye Ger\u00e7ik", "reason": "Tespit Edilemeyen", "req": "Yok", "source": "http://ilerihaber.org/icerik/tekirdagda-kadin-cinayeti-70106.html", "type": "boundary", "who": "Tan\u0131mad\u0131\u011f\u0131 Birisi", "year": 2017}, "type": "Feature"}, {"geometry": {"coordinates": [30.516168, 38.709902], "type": "Point"}, "properties": {"city": "Afyonkarahisar", "date": "07.04.2017", "death": "Ate\u015fili Silah", "name": "G\u00f6n\u00fcl Erye\u011fen", "reason": "Tespit Edilemeyen", "req": "Yok", "source": "https://www.haberler.com/amca-kursun-yagdirdi-1-olu-1-yarali-9473696-haberi/", "type": "boundary", "who": "Amcas\u0131", "year": 2017}, "type": "Feature"}, {"geometry": {"coordinates": [28.95769, 41.0507], "type": "Point"}, "properties": {"city": "\u0130stanbul", "date": "10.04.2017", "death": "Ate\u015fli Silah", "name": "Ay\u015fe Melek \u00d6zt\u00fcrk", "reason": "Tespit Edilemeyen", "req": "Yok", "source": "https://www.cnnturk.com/turkiye/beylikduzunde-bir-kadin-evinin-onunde-vurularak-olduruldu", "type": "boundary", "who": "Eski Sevgilisi", "year": 2017}, "type": "Feature"}, {"geometry": {"coordinates": [35.365, 36.990665], "type": "Point"}, "properties": {"city": "Adana", "date": "11.04.2017", "death": "Ate\u015fli Silah", "name": "Senem Bar\u0131k", "reason": "Namus", "req": "Yok", "source": "http://haber.sol.org.tr/toplum/adanada-kadin-cinayeti-iki-kadin-namus-bahanesiyle-katledildi-192436", "type": "boundary", "who": "Akraba", "year": 2017}, "type": "Feature"}, {"geometry": {"coordinates": [35.335971, 36.993668], "type": "Point"}, "properties": {"city": "Adana", "date": "11.04.2017", "death": "Ate\u015fli Silah", "name": "Zeliha Sevgiliba\u015f", "reason": "Arkada\u015f\u0131n\u0131 Korurken", "req": "Yok", "source": "http://haber.sol.org.tr/toplum/adanada-kadin-cinayeti-iki-kadin-namus-bahanesiyle-katledildi-192436", "type": "boundary", "who": "Tan\u0131mad\u0131\u011f\u0131 Birileri", "year": 2017}, "type": "Feature"}, {"geometry": {"coordinates": [32.825902, 39.883052], "type": "Point"}, "properties": {"city": "Ankara", "date": "08.04.2017", "death": "Bo\u011fulma", "name": "Meryem Aksoy", "reason": "Tespit Edilemeyen", "req": "Yok", "source": "http://www.karar.com/guncel-haberler/ankarada-kaybolan-kadin-olu-bulundu-442714", "type": "boundary", "who": "Tespit Edilemeyen", "year": 2017}, "type": "Feature"}, {"geometry": {"coordinates": [28.356874, 37.183598], "type": "Point"}, "properties": {"city": "Mu\u011fla", "date": "07.04.2017", "death": "Bo\u011fulma", "name": "Fatma \u015eekerci", "reason": "Tespit Edilemeyen", "req": "Yok", "source": "http://www.gazetevatan.com/su-kuyusunda-kadin-cesedi-bulundu-1055900-yasam/", "type": "boundary", "who": "Tespit Edilemeyen", "year": 2017}, "type": "Feature"}, {"geometry": {"coordinates": [34.996895, 40.575275], "type": "Point"}, "properties": {"city": "\u00c7orum", "date": "01.04.2017", "death": "Tespit Edilemeyen", "name": "Serap T.", "reason": "Tespit Edilemeyen", "req": "Yok", "source": "http://www.habersitesi.com/corumda-bir-kadin-yataginda-olu-bulundu-70232h.htm", "type": "boundary", "who": "Tespit Edilemeyen", "year": 2017}, "type": "Feature"}, {"geometry": {"coordinates": [29.930551, 40.732377], "type": "Point"}, "properties": {"city": "Kocaeli", "date": "04.04.2017", "death": "Tespit Edilemeyen", "name": "Hediye G.", "reason": "Tespit Edilemeyen", "req": "Yok", "source": "https://www.haberler.com/genc-kadin-evde-olu-bulundu-9456038-haberi/", "type": "boundary", "who": "Tespit Edilemeyen", "year": 2017}, "type": "Feature"}, {"geometry": {"coordinates": [29.123925, 37.801206], "type": "Point"}, "properties": {"city": "Denizli", "date": "01.04.2017", "death": "Tespit Edilemeyen", "name": "Yadigar Bozkurt ", "reason": "Tespit Edilemeyen", "req": "Yok", "source": "http://www.timeturk.com/70-yasindaki-kadin-evinde-olu-bulundu/haber-561925", "type": "boundary", "who": "Tespit Edilemeyen", "year": 2017}, "type": "Feature"}, {"geometry": {"coordinates": [35.277913, 36.938613], "type": "Point"}, "properties": {"city": "Adana", "date": "02.05.2017", "death": "Tespit Edilemeyen", "name": "\u0130smi Bilinmiyor", "reason": "Tespit Edilemeyen", "req": "Bilinmiyor", "source": "https://www.cnnturk.com/turkiye/adanada-sulama-kanalinda-ceset-bulundu", "type": "boundary", "who": "Tespit Edilemeyen", "year": 2017}, "type": "Feature"}, {"geometry": {"coordinates": [27.105834, 38.397161], "type": "Point"}, "properties": {"city": "\u0130zmir", "date": "02.06.2017", "death": "Kesici Alet", "name": "Filiz Akba\u015f", "reason": "Tart\u0131\u015fma", "req": "Yok", "source": "http://www.malatyagercek.com/asayis/birlikte-yasadigi-kadini-kiskanclik-yuzunden-oldurdu-h1503474.html", "type": "boundary", "who": "Sevgilisi", "year": 2017}, "type": "Feature"}, {"geometry": {"coordinates": [30.736267, 36.903985], "type": "Point"}, "properties": {"city": "Antalya", "date": "02.06.2017", "death": "Ate\u015fli Silah", "name": "Bilen \u0130\u00e7o\u011flu", "reason": "K\u0131zkarde\u015fini korurken", "req": "Yok", "source": "http://www.sozcu.com.tr/2017/gundem/damat-cinneti-2-olu-2-yarali-1878888/", "type": "boundary", "who": "K\u0131z karde\u015finin kocas\u0131", "year": 2017}, "type": "Feature"}, {"geometry": {"coordinates": [29.104906, 37.742147], "type": "Point"}, "properties": {"city": "Denizli", "date": "02.06.2017", "death": "Ate\u015fli Silah", "name": "Fadime Boz", "reason": "K\u0131zkarde\u015fini korurken", "req": "Yok", "source": "https://www.haberdenizli.com/guncel/silahli-saldirida-olu-sayisi-3e-yukseldi-h31615.html", "type": "boundary", "who": "K\u0131z karde\u015finin kocas\u0131", "year": 2017}, "type": "Feature"}, {"geometry": {"coordinates": [29.069871, 37.737142], "type": "Point"}, "properties": {"city": "Denizli", "date": "02.06.2017", "death": "Ate\u015fli Silah", "name": "\u015eeng\u00fcl Sezgince", "reason": "Bo\u015fanma Talebi", "req": "Yok", "source": "https://www.haberdenizli.com/guncel/silahli-saldirida-olu-sayisi-3e-yukseldi-h31615.html", "type": "boundary", "who": "Kocas\u0131", "year": 2017}, "type": "Feature"}, {"geometry": {"coordinates": [28.989722, 41.073723], "type": "Point"}, "properties": {"city": "\u0130stanbul", "date": "04.06.2017", "death": "Ate\u015fli Silah", "name": "Birg\u00fcl \u00c7e\u00e7en", "reason": "Tart\u0131\u015fma", "req": "Yok", "source": "http://www.sabah.com.tr/yasam/2017/06/04/pompali-tufekle-karisini-oldurduhttp://www.milliyet.com.tr/pompali-tufekle-sokak-ortasinda-gundem-2602061/", "type": "boundary", "who": "Kocas\u0131", "year": 2017}, "type": "Feature"}, {"geometry": {"coordinates": [30.715246, 36.915997], "type": "Point"}, "properties": {"city": "Antalya", "date": "03.06.2017", "death": "Ate\u015fli Silah", "name": "Dilem \u0130\u00e7o\u011flu \u00d6z ", "reason": "Bo\u015fanma Talebi", "req": "Yok", "source": "http://www.cumhuriyet.com.tr/haber/turkiye/753811/Bosanmak_istedigi_esi_tarafindan_oldurulen_kadin_topraga_verildi.html", "type": "boundary", "who": "Kocas\u0131", "year": 2017}, "type": "Feature"}, {"geometry": {"coordinates": [43.147685, 40.56371], "type": "Point"}, "properties": {"city": "Kars", "date": "05.06.2017", "death": "Yanma", "name": "\u0130smi Bilinmiyor", "reason": "Tespit Edilemeyen", "req": "Bilinmiyor", "source": "http://www.karar.com/guncel-haberler/digorda-yanmis-kadin-cesedi-bulundu-kars-haberleri-504037#", "type": "boundary", "who": "Bilinmiyor", "year": 2017}, "type": "Feature"}, {"geometry": {"coordinates": [28.33285, 37.167582], "type": "Point"}, "properties": {"city": "Mu\u011fla", "date": "12.06.2017", "death": "Ate\u015fli Silah", "name": "\u0130pek Kovan", "reason": "Rededilme", "req": "Yok", "source": "http://ilerihaber.org/icerik/18-yasindaki-kadin-arkadaslik-teklifini-reddetti-diye-olduruldu-71733.html", "type": "boundary", "who": "Tan\u0131mad\u0131\u011f\u0131 Birisi", "year": 2017}, "type": "Feature"}, {"geometry": {"coordinates": [29.096688, 40.162348], "type": "Point"}, "properties": {"city": "Bursa", "date": "13.06.2017", "death": "Asma", "name": "A.K.", "reason": "Tespit Edilemeyen", "req": "Yok", "source": "http://www.bursadabugun.com/haber/bursa-da-zeytinlikte-kadin-cesedi-bulundu-839240.html", "type": "boundary", "who": "Tespit Edilemeyen", "year": 2017}, "type": "Feature"}, {"geometry": {"coordinates": [29.051643, 40.207393], "type": "Point"}, "properties": {"city": "Bursa", "date": "13.06.2017", "death": "Ate\u015fli Silah", "name": "Dilek Bozal", "reason": "Tespit Edilemeyen", "req": "Yok", "source": "https://www.haberler.com/bursa-da-kadin-cinayetlerine-bir-yenisi-eklendi-9722585-haberi/", "type": "boundary", "who": "Tespit Edilemeyen", "year": 2017}, "type": "Feature"}, {"geometry": {"coordinates": [32.502745, 37.901921], "type": "Point"}, "properties": {"city": "Konya", "date": "14.06.2017", "death": "Ate\u015fli Silah", "name": "Menek\u015fe S.", "reason": "Tespit Edilemeyen", "req": "Yok", "source": "https://www.cnnturk.com/turkiye/konyada-kadin-cinayeti", "type": "boundary", "who": "Sevgilisi", "year": 2017}, "type": "Feature"}, {"geometry": {"coordinates": [27.144873, 38.422186], "type": "Point"}, "properties": {"city": "\u0130zmir", "date": "21.03.2017", "death": "Tespit Edilemeyen", "name": "Funda G\u00fclmez", "reason": "Aldat\u0131lma \u015e\u00fcphesi", "req": "Yok", "source": "http://www.milliyet.com.tr/genc-kizi-oldurdukten-sonra-posete-gundem-2522824/", "type": "boundary", "who": "Sevgilisi", "year": 2017}, "type": "Feature"}, {"geometry": {"coordinates": [28.984717, 41.051701], "type": "Point"}, "properties": {"city": "\u0130stanbul", "date": "19.09.2017", "death": "Kesici Alet", "name": "\u00d6zbek Zarifa Shokirova", "reason": "\u0130ntikam ", "req": "Yok", "source": "http://www.milliyet.com.tr/eski-ese-olum-tuzagi-gundem-2522446/", "type": "boundary", "who": "Eski Kocas\u0131", "year": 2017}, "type": "Feature"}, {"geometry": {"coordinates": [30.315483, 37.755248], "type": "Point"}, "properties": {"city": "Burdur", "date": "19.09.2017", "death": "Ate\u015fli Silah", "name": "Seda Kuzucu", "reason": "Tart\u0131\u015fma", "req": "Yok", "source": "http://www.milliyet.com.tr/kiz-arkadasini-otomobil-icinde-av-gundem-2522322/", "type": "boundary", "who": "Sevgilisi", "year": 2017}, "type": "Feature"}, {"geometry": {"coordinates": [28.949682, 41.072722], "type": "Point"}, "properties": {"city": "\u0130stanbul", "date": "15.09.2017", "death": "Ate\u015fli Silah", "name": "Zerrin Demir G\u00fcvener", "reason": "Ayr\u0131lma Talebi", "req": "Yok", "source": "http://www.milliyet.com.tr/iki-kizi-oldurulen-acili-anne-o-gundem-2520039/", "type": "boundary", "who": "Kocas\u0131", "year": 2017}, "type": "Feature"}, {"geometry": {"coordinates": [28.973706, 41.10075], "type": "Point"}, "properties": {"city": "\u0130stanbul", "date": "15.09.2017", "death": "Ate\u015fli Silah", "name": "Bet\u00fcl Demir", "reason": "Tespit Edilemeyen", "req": "Yok", "source": "http://www.milliyet.com.tr/iki-kizi-oldurulen-acili-anne-o-gundem-2520039/", "type": "boundary", "who": "Tespit Edilemeyen", "year": 2017}, "type": "Feature"}, {"geometry": {"coordinates": [28.97771, 41.076726], "type": "Point"}, "properties": {"city": "\u0130stanbul", "date": "25.05.2017", "death": "Tespit Edilemeyen", "name": "Sinem \u00c7elik", "reason": "Namus", "req": "Yok", "source": "http://www.milliyet.com.tr/kendi-kizlarini-canini-sevdiginin-gundem-2519870/", "type": "boundary", "who": "Abisi, Eni\u015ftesi", "year": 2017}, "type": "Feature"}, {"geometry": {"coordinates": [32.465708, 37.882902], "type": "Point"}, "properties": {"city": "Konya", "date": "14.09.2017", "death": "Kesici Alet", "name": "Sanaa M\u0131m\u0131 Abdelrahman Mkboul ", "reason": "Ayr\u0131lma Talebi", "req": "Yok", "source": "http://www.milliyet.com.tr/misirli-koca-esini-zengin-bir-gundem-2519285/", "type": "boundary", "who": "Kocas\u0131", "year": 2017}, "type": "Feature"}, {"geometry": {"coordinates": [32.498741, 37.824844], "type": "Point"}, "properties": {"city": "Konya", "date": "14.09.2017", "death": "Kesici Alet", "name": "Fat\u0131ma Boumend\u0131l", "reason": "Kar\u0131s\u0131nla arkada\u015fl\u0131k etti\u011fi i\u00e7in ", "req": "Yok", "source": "http://www.milliyet.com.tr/misirli-koca-esini-zengin-bir-gundem-2519285/", "type": "boundary", "who": "Tan\u0131d\u0131\u011f\u0131 Birisi", "year": 2017}, "type": "Feature"}, {"geometry": {"coordinates": [29.090682, 40.203389], "type": "Point"}, "properties": {"city": "Bursa", "date": "13.09.2017", "death": "Kesici Alet", "name": "Deniz G\u00fcne\u015f Ad\u0131yaman", "reason": "Ayr\u0131lma Talebi", "req": "Yok", "source": "http://www.milliyet.com.tr/esini-12-bicak-darbesiyle-oldurdu--gundem-2518581/", "type": "boundary", "who": "Kocas\u0131", "year": 2017}, "type": "Feature"}, {"geometry": {"coordinates": [30.713244, 36.837919], "type": "Point"}, "properties": {"city": "Antalya", "date": "13.09.2017", "death": "Darp, \u0130tme", "name": "\u00d6zg\u00fcr \u00d6zen", "reason": "Tart\u0131\u015fma", "req": "Yok", "source": "http://www.milliyet.com.tr/dis-hekimini-erkek-arkadas-gundem-2518529/", "type": "boundary", "who": "Sevgilisi", "year": 2017}, "type": "Feature"}, {"geometry": {"coordinates": [30.682213, 36.860942], "type": "Point"}, "properties": {"city": "Antalya", "date": "11.09.2017", "death": "Kesici Alet", "name": "Anna Safaryan", "reason": "Tart\u0131\u015fma", "req": "Yok", "source": "http://www.milliyet.com.tr/birlikte-oldugu-gurcu-kadini-6-gundem-2517231/", "type": "boundary", "who": "Sevgilsi", "year": 2017}, "type": "Feature"}, {"geometry": {"coordinates": [41.49067, 38.73421], "type": "Point"}, "properties": {"city": "Mu\u015f", "date": "08.09.2017", "death": "Ate\u015fli Silah", "name": "Ayten Aykan", "reason": "Tespit Edilemeyen", "req": "Yok", "source": "http://www.milliyet.com.tr/5-kisinin-katili-ozel-guvenlikci-gundem-2515775/http://www.milliyet.com.tr/ailesini-katleden-ozel-guvenlik-gundem-2516487/", "type": "boundary", "who": "Kocas\u0131", "year": 2017}, "type": "Feature"}, {"geometry": {"coordinates": [41.512692, 38.700176], "type": "Point"}, "properties": {"city": "Mu\u015f", "date": "08.09.2017", "death": "Ate\u015fli Silah", "name": "Sultan Aykan", "reason": "Tespit Edilemeyen", "req": "Yok", "source": "http://www.milliyet.com.tr/5-kisinin-katili-ozel-guvenlikci-gundem-2515775/http://www.milliyet.com.tr/ailesini-katleden-ozel-guvenlik-gundem-2516487/", "type": "boundary", "who": "Abisi", "year": 2017}, "type": "Feature"}, {"geometry": {"coordinates": [41.536716, 38.698174], "type": "Point"}, "properties": {"city": "Mu\u015f", "date": "08.09.2017", "death": "Ate\u015fli Silah", "name": "Besra Aykan", "reason": "Tespit Edilemeyen", "req": "Yok", "source": "http://www.milliyet.com.tr/5-kisinin-katili-ozel-guvenlikci-gundem-2515775/http://www.milliyet.com.tr/ailesini-katleden-ozel-guvenlik-gundem-2516487/", "type": "boundary", "who": "Akrabas\u0131", "year": 2017}, "type": "Feature"}, {"geometry": {"coordinates": [41.467647, 38.778254], "type": "Point"}, "properties": {"city": "Mu\u015f", "date": "08.09.2017", "death": "Ate\u015fli Silah", "name": "Vahide Aykan", "reason": "Tespit Edilemeyen", "req": "Yok", "source": "http://www.milliyet.com.tr/5-kisinin-katili-ozel-guvenlikci-gundem-2515775/http://www.milliyet.com.tr/ailesini-katleden-ozel-guvenlik-gundem-2516487/", "type": "boundary", "who": "Akrabas\u0131", "year": 2017}, "type": "Feature"}, {"geometry": {"coordinates": [27.146875, 38.460224], "type": "Point"}, "properties": {"city": "\u0130zmir", "date": "08.09.2017", "death": "Ate\u015fli Silah", "name": "Nil Kayar", "reason": "Tespit Edilemeyen", "req": "Yok", "source": "http://www.milliyet.com.tr/kufur-dehseti-gece-kulubune-gundem-2515591/", "type": "boundary", "who": "Tan\u0131mad\u0131\u011f\u0131 Birisi", "year": 2017}, "type": "Feature"}, {"geometry": {"coordinates": [36.34735, 41.300059], "type": "Point"}, "properties": {"city": "Samsun", "date": "05.09.2017", "death": "Ate\u015fli Silah", "name": "Emine G\u00fcnay", "reason": "Reddedilme", "req": "Yok", "source": "http://www.milliyet.com.tr/sevdigi-kadini-alamayinca-dehset-gundem-2513660/", "type": "boundary", "who": "Tan\u0131d\u0131\u011f\u0131 Birisi", "year": 2017}, "type": "Feature"}, {"geometry": {"coordinates": [36.289292, 41.306065], "type": "Point"}, "properties": {"city": "Samsun", "date": "25.07.2017", "death": "Darp", "name": "Ceylan \u00c7al\u0131\u015fkan", "reason": "Tespit Edilemeyen", "req": "Yok", "source": "http://www.habergazetesi.com.tr/haber/717281/samsunda-eski-karisini-oldurdugu-suphesine-gozalti", "type": "boundary", "who": "Sevgilisi", "year": 2017}, "type": "Feature"}, {"geometry": {"coordinates": [35.356992, 36.96564], "type": "Point"}, "properties": {"city": "Adana", "date": "21.07.2017", "death": "Ate\u015fli Silah", "name": "Elif \u00c7il", "reason": "Tart\u0131\u015fma", "req": "Yok", "source": "http://www.milliyet.com.tr/adana-da-barda-silahli-kavga-1-gundem-2488450/", "type": "boundary", "who": "Tan\u0131d\u0131\u011f\u0131 Birisi", "year": 2017}, "type": "Feature"}, {"geometry": {"coordinates": [38.364982, 40.922207], "type": "Point"}, "properties": {"city": "Giresun", "date": "21.07.2017", "death": "Bo\u011fulma", "name": "Hanife G\u00f6kdemir", "reason": "Tespit Edilemeyen", "req": "Yok", "source": "https://www.arti49.com/giresunda-kayip-kadinin-cesedi-bulundu-873421h.htm", "type": "boundary", "who": "Tespit Edilemeyen", "year": 2017}, "type": "Feature"}, {"geometry": {"coordinates": [35.196266, 41.999335], "type": "Point"}, "properties": {"city": "Sinop", "date": "21.07.2017", "death": "Ate\u015fli Silah", "name": "Dudu \u00c7.", "reason": "Tespit Edilemeyen", "req": "Yok", "source": "http://www.hurriyet.com.tr/olu-bulunan-kadinin-mezari-acildi-olduruldugu-40527454", "type": "boundary", "who": "Kocas\u0131", "year": 2017}, "type": "Feature"}, {"geometry": {"coordinates": [32.545788, 37.881901], "type": "Point"}, "properties": {"city": "Konya", "date": "27.07.2017", "death": "Ate\u015fli Silah", "name": "Elif \u00c7evik", "reason": "Tespit Edilemeyen", "req": "Yok", "source": "http://www.cumhuriyet.com.tr/haber/turkiye/790888/Konya_da_kadin_cinayeti__Polis_esini_silahla_vurarak_oldurdu.html", "type": "boundary", "who": "Kocas\u0131", "year": 2017}, "type": "Feature"}, {"geometry": {"coordinates": [44.08162, 39.54813], "type": "Point"}, "properties": {"city": "Do\u011fu Beyaz\u0131t", "date": "28.07.2017", "death": "Tespit Edilemeyen", "name": "\u0130smi Bilinmiyor", "reason": "Tespit Edilemeyen", "req": "Bilinmiyor", "source": "http://www.karar.com/guncel-haberler/dogubayazitta-kadin-cesedi-bulundu-555180#", "type": "boundary", "who": "Tespit Edilemeyen", "year": 2017}, "type": "Feature"}, {"geometry": {"coordinates": [38.741226, 37.149683], "type": "Point"}, "properties": {"city": "\u015eanl\u0131urfa", "date": "29.07.2017", "death": "Ate\u015fli Silah", "name": "Hanife Ertan", "reason": "Bo\u015fanma Talebi", "req": "Yok", "source": "http://www.hurriyet.com.tr/koca-dehseti-karisini-ve-kizini-oldurdu-40534847", "type": "boundary", "who": "Kocas\u0131", "year": 2017}, "type": "Feature"}, {"geometry": {"coordinates": [38.812297, 37.158692], "type": "Point"}, "properties": {"city": "\u015eanl\u0131urfa", "date": "29.07.2017", "death": "Ate\u015fli Silah", "name": "Sevda Ertan", "reason": "Annesini Korurken", "req": "Yok", "source": "http://www.hurriyet.com.tr/koca-dehseti-karisini-ve-kizini-oldurdu-40534847", "type": "boundary", "who": "Babas\u0131", "year": 2017}, "type": "Feature"}, {"geometry": {"coordinates": [36.569899, 40.291928], "type": "Point"}, "properties": {"city": "Tokat", "date": "30.07.2017", "death": "Kesici Alet", "name": "Ay\u015fe Me\u015fe", "reason": "Reddedilme", "req": "Yok", "source": "http://www.karar.com/guncel-haberler/bir-yil-once-kacirdigi-kizi-pazar-yerinde-bicakla-oldurdu-tokat-haberleri-557081#", "type": "boundary", "who": "Eski Sevgili", "year": 2017}, "type": "Feature"}, {"geometry": {"coordinates": [43.048778, 39.675765], "type": "Point"}, "properties": {"city": "A\u011fr\u0131", "date": "01.08.2017", "death": "Kesici Alet", "name": "Nadime Narin", "reason": "Tart\u0131\u015fma", "req": "Yok", "source": "http://www.diyarinsesi.org/haber/karisini-oldurup-intihar-etti-107728.htm", "type": "boundary", "who": "Kocas\u0131", "year": 2017}, "type": "Feature"}, {"geometry": {"coordinates": [29.953574, 40.730375], "type": "Point"}, "properties": {"city": "Kocaeli", "date": "10.08.2017", "death": "Ate\u015fli Silah", "name": "G\u00fclsime \u00d6zi\u015f", "reason": "Bo\u015fanma Talebi", "req": "Yok", "source": "http://www.kocaelibarisgazetesi.com/polis-adliye/evi-terk-edip-kizinin-yanina-yerlesin-karisini-oldurdu-2-h84605.html", "type": "boundary", "who": "Kocas\u0131", "year": 2017}, "type": "Feature"}, {"geometry": {"coordinates": [30.758289, 36.892974], "type": "Point"}, "properties": {"city": "Antalya", "date": "11.08.2017", "death": "Bo\u011fma", "name": "\u015eadiye Akay", "reason": "Tespit Edilemeyen", "req": "Yok", "source": "http://www.haberturk.com/gundem/haber/1595103-antalya-da-40-yasindaki-kadin-evinde-bogularak-olduruldu", "type": "boundary", "who": "Tespit Edilemeyen", "year": 2017}, "type": "Feature"}, {"geometry": {"coordinates": [27.127856, 38.422186], "type": "Point"}, "properties": {"city": "\u0130zmir", "date": "13.08.2017", "death": "Darp", "name": "\u0130smi Bilinmiyor", "reason": "Tespit Edilemeyen", "req": "Yok", "source": "https://www.haberler.com/aliaga-da-yol-kenarinda-kadin-cesedi-bulundu-9926613-haberi/", "type": "boundary", "who": "Tespit Edilemeyen", "year": 2017}, "type": "Feature"}, {"geometry": {"coordinates": [27.460423, 38.601909], "type": "Point"}, "properties": {"city": "Manisa", "date": "14.08.2017", "death": "Ate\u015fli Silah", "name": "D\u00f6nd\u00fc A\u00e7\u0131kg\u00f6z", "reason": "Husumet", "req": "Yok", "source": "http://www.malatyaguncel.com/manisada-kadin-cinayeti-749541h.htm", "type": "boundary", "who": "Tan\u0131d\u0131\u011f\u0131 Birisi", "year": 2017}, "type": "Feature"}, {"geometry": {"coordinates": [39.729003, 41.054578], "type": "Point"}, "properties": {"city": "Trabzon", "date": "15.08.2017", "death": "Darp, Kesici Alet", "name": "P\u0131nar Kaynak", "reason": "Tespit Edilemeyen", "req": "Yok", "source": "http://www.karar.com/guncel-haberler/trabzonda-bicaklanmis-kadin-cesedi-bulundu-571366#", "type": "boundary", "who": "Tespit Edilemeyen", "year": 2017}, "type": "Feature"}, {"geometry": {"coordinates": [27.153882, 38.402166], "type": "Point"}, "properties": {"city": "\u0130zmir", "date": "16.08.2017", "death": "Darp", "name": "Yonca Duman", "reason": "Tespit Edilemeyen", "req": "Yok", "source": "https://www.haberler.com/hap-icti-denen-kadinin-basina-darbe-alarak-oldugu-9936336-haberi/", "type": "boundary", "who": "Tespit Edilemeyen", "year": 2017}, "type": "Feature"}, {"geometry": {"coordinates": [30.715246, 36.896978], "type": "Point"}, "properties": {"city": "Antalya", "date": "17.08.2017", "death": "Kesici Alet", "name": "Zeynep Y\u00f6r\u00fck", "reason": "Tart\u0131\u015fma", "req": "Yok", "source": "http://haber.sol.org.tr/toplum/antalyada-kadin-cinayeti-206498", "type": "boundary", "who": "Kocas\u0131", "year": 2017}, "type": "Feature"}, {"geometry": {"coordinates": [32.896973, 39.939108], "type": "Point"}, "properties": {"city": "Ankara", "date": "12.10.2017", "death": "Ate\u015fli Silah", "name": "Hilal \u0130zci", "reason": "Husumet", "req": "Yok", "source": "http://www.hurriyet.com.tr/ankaradaki-kari-koca-cinayetinin-nedeni-yasak-ask-40607714", "type": "boundary", "who": "Tan\u0131d\u0131\u011f\u0131 Birileri", "year": 2017}, "type": "Feature"}, {"geometry": {"coordinates": [28.992725, 41.026676], "type": "Point"}, "properties": {"city": "\u0130stanbul", "date": "14.10.2017", "death": "Ate\u015fli Silah", "name": "\u00d6znur Belli", "reason": "Namus", "req": "Yok", "source": "http://www.hurriyet.com.tr/evli-adamla-iliskisi-var-diye-ablasini-oldurdu-40610500", "type": "boundary", "who": "Abisi", "year": 2017}, "type": "Feature"}, {"geometry": {"coordinates": [28.964697, 41.097747], "type": "Point"}, "properties": {"city": "\u0130stanbul", "date": "14.10.2017", "death": "Ate\u015fli Silah", "name": "Helin Paland\u00f6ken", "reason": "K\u0131skan\u00e7l\u0131k", "req": "Yok", "source": "http://www.hurriyet.com.tr/son-dakika-garda-dehset-randevusu-helini-pompaliyla-katletti-2-ogrenciyi-de-yaraladi-40609983?_sgm_source=40609983&_sgm_campaign=scn_a004850058058000&_sgm_action=click", "type": "boundary", "who": "Eski Sevgilisi", "year": 2017}, "type": "Feature"}, {"geometry": {"coordinates": [39.223758, 38.662825], "type": "Point"}, "properties": {"city": "Elaz\u0131\u011f", "date": "13.10.2017", "death": "Kesici Alet", "name": "Hilal B.", "reason": "Tespit Edilemeyen", "req": "Yok", "source": "https://seninmedyan.org/2017/10/13/22-yasindaki-hilal-babasi-tarafindan-bogazi-kesilerek-katledildi/", "type": "boundary", "who": "Babas\u0131", "year": 2017}, "type": "Feature"}, {"geometry": {"coordinates": [36.340343, 41.244003], "type": "Point"}, "properties": {"city": "Samsun", "date": "05.09.2017", "death": "Ate\u015fli Silah", "name": "Emine G\u00fcnay", "reason": "Reddedilme", "req": "Yok", "source": "http://www.ashaber.com/haber/6184/samsunda-ask-cinayeti-sevdigi-kadini-alamayinca-dehset-sacti-2-olu-1-yarali.html", "type": "boundary", "who": "Tan\u0131d\u0131\u011f\u0131 Birisi", "year": 2017}, "type": "Feature"}, {"geometry": {"coordinates": [36.373376, 41.308067], "type": "Point"}, "properties": {"city": "Samsun", "date": "07.09.2017", "death": "Ate\u015fli Silah", "name": "\u0130smi Bilinmiyor", "reason": "Tespit Edilemeyen", "req": "Yok", "source": "https://www.samsunhaber.org/asayis/mevsimlik-iscilere-silahli-saldirida-bulunup-bir-kadin-isciyi-h5189.html", "type": "boundary", "who": "Tan\u0131mad\u0131\u011f\u0131\u00a0Birisi", "year": 2017}, "type": "Feature"}, {"geometry": {"coordinates": [37.400185, 37.109567], "type": "Point"}, "properties": {"city": "Gaziantep", "date": "09.09.2017", "death": "Ate\u015fli Silah", "name": "Adile Deniz", "reason": "Bo\u015fanma Talebi", "req": "Var", "source": "http://www.hurriyet.com.tr/hain-plan-esini-boyle-oldurdu-40573701", "type": "boundary", "who": "Kocas\u0131", "year": 2017}, "type": "Feature"}, {"geometry": {"coordinates": [27.186915, 38.435199], "type": "Point"}, "properties": {"city": "\u0130zmir", "date": "07.09.2017", "death": "Darp", "name": "S\u00fcmer Uyan", "reason": "Para", "req": "Yok", "source": "http://www.sabah.com.tr/egeli/2017/09/07/once-bayramlasti-sonra-da-oldurdu", "type": "boundary", "who": "Tan\u0131d\u0131\u011f\u0131 Birisi", "year": 2017}, "type": "Feature"}, {"geometry": {"coordinates": [28.953686, 41.054704], "type": "Point"}, "properties": {"city": "\u0130stanbul", "date": "03.09.2017", "death": "Kesici Alet", "name": "Alime Demirda\u011f", "reason": "Ayr\u0131lma Talebi", "req": "Yok", "source": "http://www.haberturk.com/gundem/haber/1618890-bahcelievler-de-kocasinin-oldurdugu-genc-kadinin-cenazesi-memleketine-gonderildihttps://www.sondakikaturk.com.tr/asayis/bayram-kadin-cinayetlerini-durduramadi-biri-bicaklayarak-digeri-h52463.html", "type": "boundary", "who": "Kocas\u0131", "year": 2017}, "type": "Feature"}, {"geometry": {"coordinates": [27.796484, 37.798828], "type": "Point"}, "properties": {"city": "Ayd\u0131n", "date": "02.09.2017", "death": "Ate\u015fli Silah", "name": "Nihal Subakan", "reason": "Tespit Edilemeyen", "req": "Yok", "source": "http://ilerihaber.org/icerik/aydinda-kadin-cinayeti-esini-av-tufegiyle-oldurduintihar-etti-75771.html", "type": "boundary", "who": "Kocas\u0131", "year": 2017}, "type": "Feature"}, {"geometry": {"coordinates": [34.67465, 37.96414], "type": "Point"}, "properties": {"city": "Ni\u011fde", "date": "08.09.2017", "death": "Tespit Edilemeyen", "name": "Sevgi A.", "reason": "Tespit Edilemeyen", "req": "Yok", "source": "http://www.iyigunler.net/guvenlik/genc-kadin-hastane-bahcesinde-olu-bulundu-h305674.html", "type": "boundary", "who": "Tespit Edilemeyen", "year": 2017}, "type": "Feature"}, {"geometry": {"coordinates": [34.695671, 37.975151], "type": "Point"}, "properties": {"city": "Ni\u011fde", "date": "10.09.2017", "death": "Kesici Alet", "name": "\u0130smi Bilinmiyor", "reason": "Tespit Edilemeyen", "req": "Bilinmiyor", "source": "http://www.karar.com/guncel-haberler/nigdede-kadin-cesedi-bulundu-593625", "type": "boundary", "who": "Tespit Edilemeyen", "year": 2017}, "type": "Feature"}, {"geometry": {"coordinates": [32.859936, 39.945114], "type": "Point"}, "properties": {"city": "Ankara", "date": "10.09.2017", "death": "Asma", "name": "Nazmiye T.", "reason": "Tespit Edilemeyen", "req": "Yok", "source": "http://www.milliyet.com.tr/ormanda-agaca-asili-kadin-cesedi-bulundu-ankara-yerelhaber-2268044/", "type": "boundary", "who": "Tespit Edilemeyen", "year": 2017}, "type": "Feature"}, {"geometry": {"coordinates": [30.748279, 36.896978], "type": "Point"}, "properties": {"city": "Antalya", "date": "11.09.2017", "death": "Kesici Alet", "name": "Anna Safaryan", "reason": "Tart\u0131\u015fma", "req": "Yok", "source": "http://t24.com.tr/haber/sevgilisini-bicaklayip-oldurdu-tartistik-oldurdum,437739", "type": "boundary", "who": "Sevgilisi", "year": 2017}, "type": "Feature"}, {"geometry": {"coordinates": [32.490733, 37.851871], "type": "Point"}, "properties": {"city": "Konya", "date": "13.09.2017", "death": "Kesici Alet", "name": "Sanaa M\u0131m\u0131 Abdelrahman Mkboul", "reason": "Tespit Edilemeyen", "req": "Yok", "source": "", "type": "boundary", "who": "Tan\u0131d\u0131\u011f\u0131 Birisi", "year": 2017}, "type": "Feature"}, {"geometry": {"coordinates": [36.318321, 41.299058], "type": "Point"}, "properties": {"city": "Samsun", "date": "07.09.2017", "death": "Ate\u015fli Silah", "name": "Perihan Ak\u0131n", "reason": "Tespit Edilemeyen", "req": "Yok", "source": "http://beyazgazete.com/haber/2017/9/7/mevsimlik-iscilerin-kaldigi-cadira-ates-acildi-aciklamasi-1-kadin-oldu-1-kadin-yarali-4062411.html", "type": "boundary", "who": "Tespit Edilemeyen", "year": 2017}, "type": "Feature"}, {"geometry": {"coordinates": [29.945566, 40.757402], "type": "Point"}, "properties": {"city": "Kocaeli", "date": "06.09.2017", "death": "Ate\u015fli Silah", "name": "Fatma Kutal", "reason": "Tespit Edilemeyen", "req": "Yok", "source": "http://www.cumhuriyet.com.tr/haber/turkiye/817803/Maganda_kursunu_ile_yaralanan_kadin_oldu.html", "type": "boundary", "who": "Akrabas\u0131", "year": 2017}, "type": "Feature"}, {"geometry": {"coordinates": [28.968701, 41.065715], "type": "Point"}, "properties": {"city": "\u0130stanbul", "date": "15.09.2017", "death": "Ate\u015fli Silah", "name": "Zerrin Demir G\u00fcvener", "reason": "Tespit Edilemeyen", "req": "Yok", "source": "https://www.cnnturk.com/turkiye/karisini-ve-baldizini-oldurup-intihar-etmeye-calisti?page=1", "type": "boundary", "who": "Tespit Edilemeyen", "year": 2017}, "type": "Feature"}, {"geometry": {"coordinates": [29.000733, 41.072722], "type": "Point"}, "properties": {"city": "\u0130stanbul", "date": "22.09.2017", "death": "Kesici Alet, Darp", "name": "Orouba Barakat", "reason": "Tart\u0131\u015fma", "req": "Yok", "source": "http://www.hurriyet.com.tr/suriyeli-aktivist-anne-ve-gazeteci-kizi-istanbulda-olduruldu-40586739", "type": "boundary", "who": "Tan\u0131d\u0131\u011f\u0131 Birisi", "year": 2017}, "type": "Feature"}, {"geometry": {"coordinates": [28.958691, 41.074724], "type": "Point"}, "properties": {"city": "\u0130stanbul", "date": "22.09.2017", "death": "Kesici Alet, Darp", "name": "Halla Barakat", "reason": "Tart\u0131\u015fma", "req": "Yok", "source": "http://www.hurriyet.com.tr/suriyeli-aktivist-anne-ve-gazeteci-kizi-istanbulda-olduruldu-40586739http://www.milliyet.com.tr/suriyeli-aktivist-anne-ve-gazeteci-gundem-2577634/", "type": "boundary", "who": "Tan\u0131d\u0131\u011f\u0131 Birisi", "year": 2017}, "type": "Feature"}, {"geometry": {"coordinates": [29.09869, 40.135321], "type": "Point"}, "properties": {"city": "Bursa", "date": "22.09.2017", "death": "Kesici Alet", "name": "\u0130smanperi A.", "reason": "Tart\u0131\u015fma", "req": "Yok", "source": "http://www.sabah.com.tr/yasam/2017/09/22/8-aylik-hamile-esini-bicaklayarak-oldurduhttp://www.milliyet.com.tr/suriyeli-aktivist-anne-ve-gazeteci-gundem-2577634/", "type": "boundary", "who": "Kocas\u0131", "year": 2017}, "type": "Feature"}, {"geometry": {"coordinates": [27.1719, 38.475239], "type": "Point"}, "properties": {"city": "\u0130zmir", "date": "23.09.2017", "death": "Ate\u015fli Silah", "name": "Bahriye \u00dcnge\u00e7", "reason": "Tart\u0131\u015fma", "req": "Yok", "source": "https://www.haberler.com/konak-ilcesinde-bir-kadin-ortagi-tarafindan-10059099-haberi/", "type": "boundary", "who": "Tan\u0131d\u0131\u011f\u0131 Birisi", "year": 2017}, "type": "Feature"}, {"geometry": {"coordinates": [29.062864, 37.801206], "type": "Point"}, "properties": {"city": "Denizli", "date": "28.09.2017", "death": "Ate\u015fli Silah", "name": "P\u0131nar Eliuz", "reason": "Tart\u0131\u015fma", "req": "Yok", "source": "http://www.bursadabugun.com/haber/tartistigi-sevgilisini-aracta-tufekle-oldurdu-875641.html", "type": "boundary", "who": "Sevgilisi", "year": 2017}, "type": "Feature"}, {"geometry": {"coordinates": [38.800285, 37.188722], "type": "Point"}, "properties": {"city": "\u015eanl\u0131urfa", "date": "26.09.2017", "death": "Ate\u015fli Silah", "name": "Sode \u00c7elik", "reason": "Tart\u0131\u015fma", "req": "Yok", "source": "http://www.ensonhaber.com/miras-yuzunden-annesini-oldurdu.html", "type": "boundary", "who": "O\u011flu", "year": 2017}, "type": "Feature"}, {"geometry": {"coordinates": [29.372793, 38.638789], "type": "Point"}, "properties": {"city": "U\u015fak", "date": "28.09.2017", "death": "Kesici Alet", "name": "Han\u0131m Birg\u00fcl", "reason": "Tart\u0131\u015fma", "req": "Yok", "source": "http://www.usakhabermerkezi.com/guncel/isci-kadin-bosandigi-esi-tarafindan-fabrika-onunde-bicaklanarak-hayatini-kaybetti-h30244.html", "type": "boundary", "who": "Eski Kocas\u0131", "year": 2017}, "type": "Feature"}, {"geometry": {"coordinates": [35.335971, 36.962637], "type": "Point"}, "properties": {"city": "Adana", "date": "15.09.2017", "death": "Bo\u011fulma", "name": "\u0130smi Bilinmiyor", "reason": "Tespit Edilemeyen", "req": "Tespit Edilemeyen", "source": "http://www.ensonhaber.com/sulama-kanalinda-kadin-cesedi-bulundu.html", "type": "boundary", "who": "Tespit Edilemeyen", "year": 2017}, "type": "Feature"}, {"geometry": {"coordinates": [36.58091, 40.331968], "type": "Point"}, "properties": {"city": "Tokat", "date": "30.09.2017", "death": "Kesici Alet", "name": "Dursiniye Tun\u00e7", "reason": "Namus", "req": "Yok", "source": "http://www.haberturk.com/turhaldaki-cinayetin-zanlisi-namusumu-temizledim-1654797", "type": "boundary", "who": "Tan\u0131d\u0131\u011f\u0131 Birisi", "year": 2017}, "type": "Feature"}, {"geometry": {"coordinates": [27.871559, 37.834864], "type": "Point"}, "properties": {"city": "Ayd\u0131n", "date": "15.09.2017", "death": "Bo\u011fulma", "name": "Ay\u015fe C\u00f6meto\u011flu", "reason": "Tespit Edilemeyen", "req": "Yok", "source": "http://www.posta.com.tr/soke-de-kayip-kadinin-cesedi-bulundu-haberi-1332957", "type": "boundary", "who": "Tespit Edilemeyen", "year": 2017}, "type": "Feature"}, {"geometry": {"coordinates": [37.1264, 36.71645], "type": "Point"}, "properties": {"city": "Kilis", "date": "21.09.2017", "death": "Ate\u015fli Silah", "name": "\u00d6zay K.", "reason": "Bo\u015fanma Talebi", "req": "Yok", "source": "http://www.memurlar.net/haber/695188/polis-esinin-silahindan-cikan-kursunla-vurulan-kadin-oldu.html", "type": "boundary", "who": "Kocas\u0131", "year": 2017}, "type": "Feature"}, {"geometry": {"coordinates": [27.845533, 37.804834], "type": "Point"}, "properties": {"city": "Ayd\u0131n", "date": "25.10.2017", "death": "Bo\u011fulma, Yak\u0131lma", "name": "Eylem G\u00fcl\u00e7in Kan\u0131k", "reason": "Para", "req": "Yok", "source": "http://www.milliyet.com.tr/cenazesi-ortada-kalmisti-bugun-gundem-2543452/", "type": "boundary", "who": "Tan\u0131d\u0131\u011f\u0131 Birileri", "year": 2017}, "type": "Feature"}, {"geometry": {"coordinates": [30.550754, 39.783671], "type": "Point"}, "properties": {"city": "Eski\u015fehir", "date": "24.10.2017", "death": "Kesici Alet", "name": "Gizem Y.", "reason": "Bo\u015fanma Talebi", "req": "Yok", "source": "http://www.milliyet.com.tr/10-gun-once-evlendigi-esini-gundem-2542919/", "type": "boundary", "who": "Kocas\u0131", "year": 2017}, "type": "Feature"}, {"geometry": {"coordinates": [38.774259, 37.170704], "type": "Point"}, "properties": {"city": "\u015eanl\u0131urfa", "date": "23.10.2017", "death": "Ate\u015fli Silah", "name": "Zeliha G\u00fcl", "reason": "Maganda Kur\u015funu", "req": "Yok", "source": "http://www.milliyet.com.tr/kizini-kaybeden-dilsiz-baba--gundem-2542420/", "type": "boundary", "who": "Tan\u0131mad\u0131\u011f\u0131 Birileri", "year": 2017}, "type": "Feature"}, {"geometry": {"coordinates": [28.976709, 41.071721], "type": "Point"}, "properties": {"city": "\u0130stanbul", "date": "29.10.2017", "death": "Ate\u015fli Silah", "name": "Selva Sa\u011flam Y\u0131lmaz", "reason": "Para", "req": "Yok", "source": "http://www.milliyet.com.tr/kadikoy-de-aracinda-oldurulen-gundem-2545804/", "type": "boundary", "who": "Kocas\u0131", "year": 2017}, "type": "Feature"}, {"geometry": {"coordinates": [29.073875, 37.757162], "type": "Point"}, "properties": {"city": "Denizli ", "date": "29.10.2017", "death": "Kesici Alet", "name": "\u015eennur Geni\u015fol", "reason": "Tart\u0131\u015fma", "req": "Yok", "source": "http://www.milliyet.com.tr/sizofreni-hastasi-keserle-gundem-2545698/", "type": "boundary", "who": "O\u011flu", "year": 2017}, "type": "Feature"}, {"geometry": {"coordinates": [35.373008, 37.026701], "type": "Point"}, "properties": {"city": "Adana", "date": "01.11.2017", "death": "Ate\u015fli Silah", "name": "Berivan Minaz", "reason": "Tespit Edilemeyen", "req": "Yok", "source": "http://www.milliyet.com.tr/berivan-in-katili-sevgilisinin-gundem-2547644/", "type": "boundary", "who": "Tan\u0131d\u0131\u011f\u0131 Birisi", "year": 2017}, "type": "Feature"}, {"geometry": {"coordinates": [28.962695, 41.051701], "type": "Point"}, "properties": {"city": "\u0130stanbul", "date": "01.11.2017", "death": "Ate\u015fli Silah", "name": "\u015eenay A.", "reason": "Bo\u015fanma Talebi", "req": "Yok", "source": "http://www.milliyet.com.tr/once-video-cekti-sonra-karisini-gundem-2547453/", "type": "boundary", "who": "Kocas\u0131", "year": 2017}, "type": "Feature"}, {"geometry": {"coordinates": [35.307943, 37.016691], "type": "Point"}, "properties": {"city": "Adana", "date": "10.11.2017", "death": "Ate\u015fli Silah", "name": "Manolya Sar\u0131", "reason": "Tespit Edilemeyen", "req": "Yok", "source": "http://www.hurriyet.com.tr/gizemli-olay-tabancayla-vurulmus-bir-erkekle-kadinin-cesetleri-bulundu-40640991", "type": "boundary", "who": "Sevgilisi", "year": 2017}, "type": "Feature"}, {"geometry": {"coordinates": [30.574118, 37.808185], "type": "Point"}, "properties": {"city": "Isparta", "date": "03.102017", "death": "Ate\u015fli Silah", "name": "Havva P.", "reason": "Tart\u0131\u015fma", "req": "Yok", "source": "https://www.haberler.com/esini-av-tufegiyle-oldurup-tarlaya-gomdu-10092550-haberi/", "type": "boundary", "who": "Kocas\u0131", "year": 2017}, "type": "Feature"}, {"geometry": {"coordinates": [38.779264, 37.160694], "type": "Point"}, "properties": {"city": "\u015eanl\u0131urfa", "date": "30.09.2017", "death": "Tespit Edilemeyen", "name": "Dilber G.", "reason": "Tespit Edilemeyen", "req": "Yok", "source": "https://www.haberler.com/sulama-kanalinda-kadin-cesedi-bulundu-10082678-haberi/", "type": "boundary", "who": "Tespit Edilemeyen", "year": 2017}, "type": "Feature"}, {"geometry": {"coordinates": [27.189918, 38.434198], "type": "Point"}, "properties": {"city": "\u0130zmir", "date": "02.10.2017", "death": "Tespit Edilemeyen", "name": "G\u00f6k\u015fah \u015eeylan", "reason": "Tespit Edilemeyen", "req": "Yok", "source": "https://www.sabah.com.tr/yasam/2017/10/02/40-yasindaki-kadin-evinde-olu-bulundu", "type": "boundary", "who": "Tespit Edilemeyen", "year": 2017}, "type": "Feature"}, {"geometry": {"coordinates": [36.593923, 40.285922], "type": "Point"}, "properties": {"city": "Tokat", "date": "03.10.2017", "death": "Ate\u015fli Silah", "name": "Arzu Dikal", "reason": "Tespit Edilemeyen", "req": "Yok", "source": "https://www.samsunhaber.org/asayis/o-cani-yakalandi-4-cocuk-annesi-kadini-silahla-oldurmustu-h5429.html", "type": "boundary", "who": "Tan\u0131d\u0131\u011f\u0131\u00a0Birisi", "year": 2017}, "type": "Feature"}, {"geometry": {"coordinates": [35.466493, 38.751951], "type": "Point"}, "properties": {"city": "Kayseri", "date": "04.10.2017", "death": "Kesici Alet", "name": "G\u00fclfidan G\u00fcl", "reason": "Tart\u0131\u015fma", "req": "Yok", "source": "http://www.iha.com.tr/haber-is-bul-diyen-annesini-40-yerinden-bicakladiktan-sonra-bogazini-keserek-oldurdu-676310/", "type": "boundary", "who": "O\u011flu", "year": 2017}, "type": "Feature"}, {"geometry": {"coordinates": [27.512057, 40.973635], "type": "Point"}, "properties": {"city": "Tekirda\u011f", "date": "05.10.2017", "death": "Kesici Alet", "name": "Fatma Y.", "reason": "Tart\u0131\u015fma", "req": "Yok", "source": "http://www.mynet.com/haber/yasam/cinnet-getiren-koca-dehset-sacti-16-bicak-darbesiyle-oldurdu-3302854-1", "type": "boundary", "who": "Kocas\u0131", "year": 2017}, "type": "Feature"}, {"geometry": {"coordinates": [27.177906, 38.434198], "type": "Point"}, "properties": {"city": "\u0130zmir", "date": "29.11.2017", "death": "Bo\u011fma", "name": "\u00dcsk\u00fcdar Kulaks\u0131z", "reason": "Tart\u0131\u015fma", "req": "Yok", "source": "http://www.milliyet.com.tr/eski-esini-kablo-ile-bogarak-gundem-2563713/", "type": "boundary", "who": "Eski Kocas\u0131", "year": 2017}, "type": "Feature"}, {"geometry": {"coordinates": [28.942675, 41.089739], "type": "Point"}, "properties": {"city": "\u0130stanbul", "date": "27.11.2017", "death": "Bo\u011fma", "name": "Dilek \u0130.", "reason": "Tart\u0131\u015fma, Ayr\u0131lma Talebi", "req": "Yok", "source": "http://www.hurriyet.com.tr/cani-sucunu-itiraf-etti-40659731", "type": "boundary", "who": "Sevgilisi", "year": 2017}, "type": "Feature"}, {"geometry": {"coordinates": [40.196686, 37.947473], "type": "Point"}, "properties": {"city": "Diyarbak\u0131r", "date": "12.12.2017", "death": "Y\u00fcksekten \u0130tilme", "name": "D\u00f6nd\u00fc \u00c7a\u011flayan", "reason": "Tart\u0131\u015fma", "req": "Yok", "source": "http://www.milliyet.com.tr/eve-gec-geldin-kavgasinda-gundem-2571069/", "type": "boundary", "who": "Akrabas\u0131", "year": 2017}, "type": "Feature"}, {"geometry": {"coordinates": [35.365, 36.987662], "type": "Point"}, "properties": {"city": "Adana", "date": "12.12.2017", "death": "Ate\u015fli Silah", "name": "Tu\u011fba \u00c7elik", "reason": "Para, Tart\u0131\u015fma", "req": "Yok", "source": "http://www.milliyet.com.tr/bar-sahibi-kadini-oldurup--gundem-2570986/", "type": "boundary", "who": "Tan\u0131d\u0131\u011f\u0131 Birisi", "year": 2017}, "type": "Feature"}, {"geometry": {"coordinates": [28.972705, 41.081731], "type": "Point"}, "properties": {"city": "\u0130stanbul", "date": "12.12.2017", "death": "Darp", "name": "Rukiye Balc\u0131", "reason": "Tespit Edilemeyen", "req": "Yok", "source": "http://www.milliyet.com.tr/buyukcekmece-de-cifte-cinayet-gundem-2570927/", "type": "boundary", "who": "Tespit Edilemeyen", "year": 2017}, "type": "Feature"}, {"geometry": {"coordinates": [28.963696, 41.096746], "type": "Point"}, "properties": {"city": "\u0130stanbul", "date": "12.12.2017", "death": "Darp", "name": "\u0130maverdi kaz\u0131mov", "reason": "Tespit Edilemeyen", "req": "Yok", "source": "http://www.milliyet.com.tr/buyukcekmece-de-cifte-cinayet-gundem-2570927/https://www.cnnturk.com/turkiye/istanbul-buyukcekmecede-cifte-cinayet-kadin-ve-bakicisi-evlerinde-olduruldu", "type": "boundary", "who": "Tespit Edilemeyen", "year": 2017}, "type": "Feature"}, {"geometry": {"coordinates": [29.03863, 40.225411], "type": "Point"}, "properties": {"city": "Bursa", "date": "13.12.2017", "death": "Kesici Alet", "name": "G\u00fcll\u00fc Yurto\u011flu", "reason": "Tart\u0131\u015fma", "req": "Yok", "source": "http://www.milliyet.com.tr/dugun-gununun-sabahi-oldurdugu-esin-gundem-2571820/", "type": "boundary", "who": "Tespit Edilemeyen", "year": 2017}, "type": "Feature"}, {"geometry": {"coordinates": [32.462705, 37.905925], "type": "Point"}, "properties": {"city": "Konya", "date": "17/05/2017", "death": "Ate\u015fli Silah", "name": "Yasemin Y\u0131ld\u0131z", "reason": "Tart\u0131\u015fma", "req": "Yok", "source": "http://www.hurriyet.com.tr/gundem/alaranin-drami-40787436", "type": "boundary", "who": "Eski Kocas\u0131", "year": 2017}, "type": "Feature"}, {"geometry": {"coordinates": [32.544787, 37.838858], "type": "Point"}, "properties": {"city": "Konya", "date": "17/05/2017", "death": "Ate\u015fli Silah", "name": "Fatma Y\u0131ld\u0131z", "reason": "K\u0131z\u0131n\u0131\u00a0Korurken", "req": "Yok", "source": "http://www.hurriyet.com.tr/gundem/alaranin-drami-40787436", "type": "boundary", "who": "Eski Damad\u0131", "year": 2017}, "type": "Feature"}, {"geometry": {"coordinates": [32.858935, 39.894063], "type": "Point"}, "properties": {"city": "Ankara", "date": "21/04/2017", "death": "Yanma", "name": "Nacat Muhammed Ali Omar Krut", "reason": "Tart\u0131\u015fma, Aldatma \u015e\u00fcphesi", "req": "Yok", "source": "http://www.milliyet.com.tr/esini-yakarak-olduren-adama-gundem-2652822/", "type": "boundary", "who": "Kocas\u0131", "year": 2017}, "type": "Feature"}, {"geometry": {"coordinates": [29.026759, 41.087737], "type": "Point"}, "properties": {"city": "\u0130stanbul", "date": "08/02/2017", "death": "Ate\u015fli Silah", "name": "Fato\u015f Mutlu G\u00fcne\u015f", "reason": "Tart\u0131\u015fma", "req": "Yok", "source": "http://www.milliyet.com.tr/avukatin-isyani-ne-olur-haksiz-gundem-2628642/", "type": "boundary", "who": "Kocas\u0131", "year": 2017}, "type": "Feature"}, {"geometry": {"coordinates": [32.049155, 36.53318], "type": "Point"}, "properties": {"city": "Alanya", "date": "13/01/2017", "death": "Ate\u015fli Silah", "name": "Nebahat Uysal", "reason": "Tespit Edilemeyen", "req": "Yok", "source": "http://www.milliyet.com.tr/alanya-da-cinayette-yasak-ask-gundem-2660704/", "type": "boundary", "who": "Tan\u0131d\u0131\u011f\u0131 Birileri", "year": 2017}, "type": "Feature"}, {"geometry": {"coordinates": [31.789825, 41.452902], "type": "Point"}, "properties": {"city": "Zonguldak", "date": "02.12.2017", "death": "Ate\u015fli Silah", "name": "G\u00fclay G\u00f6kdemir", "reason": "Tart\u0131\u015fma", "req": "Yok", "source": "http://siyasihaber3.org/bosandigi-esini-ve-kizini-oldurdu-oglunu-agir-yaraladi", "type": "boundary", "who": "Kocas\u0131", "year": 2017}, "type": "Feature"}, {"geometry": {"coordinates": [31.787823, 41.407857], "type": "Point"}, "properties": {"city": "Zonguldak", "date": "02.12.2017", "death": "Ate\u015fli Silah", "name": "Bet\u00fcl Ka\u00e7ar", "reason": "Tart\u0131\u015fma", "req": "Yok", "source": "http://siyasihaber3.org/bosandigi-esini-ve-kizini-oldurdu-oglunu-agir-yaraladi", "type": "boundary", "who": "Babas\u0131", "year": 2017}, "type": "Feature"}, {"geometry": {"coordinates": [40.22071, 37.879405], "type": "Point"}, "properties": {"city": "Diyarbak\u0131r", "date": "30.11.2017", "death": "Tespit Edilemeyen", "name": "G\u00fclseven Diken", "reason": "Tespit Edilemeyen", "req": "Yok", "source": "http://siyasihaber3.org/gulseven-dikenin-ailesinden-aciklama-kardesimi-amcamiz-katletti", "type": "boundary", "who": "Amcas\u0131", "year": 2017}, "type": "Feature"}, {"geometry": {"coordinates": [26.744467, 38.329012], "type": "Point"}, "properties": {"city": "Urfa", "date": "26.11.2017", "death": "Bo\u011fma", "name": "Belk\u0131s Varl\u0131k", "reason": "Tart\u0131\u015fma", "req": "Yok", "source": "http://siyasihaber3.org/urfada-kadin-cinayeti-bir-kadin-babasi-tarafindan-olduruldu", "type": "boundary", "who": "Babas\u0131", "year": 2017}, "type": "Feature"}, {"geometry": {"coordinates": [30.40345, 40.77212], "type": "Point"}, "properties": {"city": "Adapazar\u0131", "date": "22.11.2017", "death": "Tespit Edilemeyen", "name": "\u00dcmm\u00fcg\u00fcl M.", "reason": "Tart\u0131\u015fma", "req": "Yok", "source": "http://siyasihaber3.org/urfada-kadin-cinayeti-bir-kadin-babasi-tarafindan-olduruldu", "type": "boundary", "who": "Babas\u0131", "year": 2017}, "type": "Feature"}, {"geometry": {"coordinates": [30.432112, 40.769283], "type": "Point"}, "properties": {"city": "Sakarya", "date": "11.11.2017", "death": "Ate\u015fli Silah", "name": "Merve Ren\u00e7ber", "reason": "Bo\u015fanmay\u0131 Sindirememesi", "req": "Var", "source": "http://siyasihaber3.org/urfada-kadin-cinayeti-bir-kadin-babasi-tarafindan-olduruldu", "type": "boundary", "who": "Eski Kocas\u0131", "year": 2017}, "type": "Feature"}, {"geometry": {"coordinates": [32.830907, 39.903072], "type": "Point"}, "properties": {"city": "Ankara", "date": "09/03/2017", "death": "Ate\u015fli Silah", "name": "Fazilet K\u0131l\u0131\u00e7aslan", "reason": "Kendi hayat\u0131na karar vermek istedi\u011fi i\u00e7in", "req": "Yok", "source": "http://www.milliyet.com.tr/eglence-mekaninda-calisan-esini-gundem-2624301/", "type": "boundary", "who": "Kocas\u0131", "year": 2017}, "type": "Feature"}, {"geometry": {"coordinates": [30.727258, 36.846928], "type": "Point"}, "properties": {"city": "Antalya", "date": "14.10.2017", "death": "Ate\u015fli Silah", "name": "Hanife \u00d6zen", "reason": "Ge\u00e7imsizlik", "req": "Yok", "source": "http://www.milliyet.com.tr/ilk-davasi-en-zor-gorevi-olacak--gundem-2613347/", "type": "boundary", "who": "Kocas\u0131", "year": 2017}, "type": "Feature"}, {"geometry": {"coordinates": [30.680211, 36.870952], "type": "Point"}, "properties": {"city": "Antalya", "date": "14.10.2017", "death": "Ate\u015fli Silah", "name": "Esra \u00d6zen", "reason": "Ge\u00e7imsizlik", "req": "Yok", "source": "http://www.milliyet.com.tr/ilk-davasi-en-zor-gorevi-olacak--gundem-2613347/", "type": "boundary", "who": "Babas\u0131", "year": 2017}, "type": "Feature"}, {"geometry": {"coordinates": [29.000733, 41.04069], "type": "Point"}, "properties": {"city": "\u0130stanbul", "date": "17.08.2017", "death": "Kesici Alet", "name": "Sevim G\u00f6rmez", "reason": "Para", "req": "Yok", "source": "https://www.arti49.com/uyusturucu-parasi-vermeyen-anneannesini-oldurdu-2-900284h.htm", "type": "boundary", "who": "Torunu", "year": 2017}, "type": "Feature"}, {"geometry": {"coordinates": [32.551794, 37.872892], "type": "Point"}, "properties": {"city": "Konya", "date": "19.08.2017", "death": "Kesici Alet", "name": "Hacer G\u00f6ral", "reason": "Tart\u0131\u015fma", "req": "Yok", "source": "https://www.cnnturk.com/turkiye/muhtar-dehset-sacti-kavun-kestigi-bicakla-sevgilisini-oldurdu?page=1", "type": "boundary", "who": "Sevgilisi", "year": 2017}, "type": "Feature"}, {"geometry": {"coordinates": [34.769642, 39.858025], "type": "Point"},