{"features": [{"geometry": {"coordinates": [41.82143, 41.18128], "type": "Point"}, "properties": {"city": "Artvin", "date": "18/01/2016", "death": "D\u00fc\u015fme", "name": "G\u00fcler Suba\u015f\u0131", "reason": "Tespit Edilemeyen", "req": "Yok", "source": "http://www.milliyet.com.tr/cesedi-7-gun-sonra-asansor-gundem-2180685/", "type": "boundary", "who": "Tespit Edilemeyen", "year": 2016}, "type": "Feature"}, {"geometry": {"coordinates": [32.852929, 39.922091], "type": "Point"}, "properties": {"city": "Ankara", "date": "26/01/2016", "death": "Ate\u015fli Silah", "name": "Pembe C.", "reason": "Tespit Edilemeyen", "req": "Yok", "source": "http://www.milliyet.com.tr/ailesini-katleden-baba-canina-gundem-2184446/", "type": "boundary", "who": "Kocas\u0131", "year": 2016}, "type": "Feature"}, {"geometry": {"coordinates": [32.861938, 39.905074], "type": "Point"}, "properties": {"city": "Ankara", "date": "26/01/2016", "death": "Ate\u015fli Silah", "name": "Aliye C.", "reason": "Tespit Edilemeyen", "req": "Yok", "source": "http://www.milliyet.com.tr/ailesini-katleden-baba-canina-gundem-2184446/", "type": "boundary", "who": "Babas\u0131", "year": 2016}, "type": "Feature"}, {"geometry": {"coordinates": [34.95185, 40.55025], "type": "Point"}, "properties": {"city": "\u00c7orum", "date": "09/01/2016", "death": "Ate\u015fli Sialh", "name": "Nesibe S.", "reason": "Tart\u0131\u015fma", "req": "Yok", "source": "http://www.milliyet.com.tr/annesini-tufekle-vurup-oldurdu-gundem-2176355/", "type": "boundary", "who": "O\u011flu", "year": 2016}, "type": "Feature"}, {"geometry": {"coordinates": [30.672203, 36.844926], "type": "Point"}, "properties": {"city": "Antalya", "date": "08/01/2016", "death": "Tespit Edilemeyen", "name": "Hat\u0131ra Hakverdiyeva", "reason": "Tespit Edilemeyen", "req": "Yok", "source": "http://www.milliyet.com.tr/kayip-sevgililerin-cesedi-manavgat-gundem-2175767/", "type": "boundary", "who": "Tespit Edilemeyen", "year": 2016}, "type": "Feature"}, {"geometry": {"coordinates": [44.011561, 39.898269], "type": "Point"}, "properties": {"city": "I\u011fd\u0131r", "date": "30/05/2016", "death": "Kesici Alet", "name": "Fazile \u00d6zmen", "reason": "Tespit Edilemeyen", "req": "Yok", "source": "http://www.evrensel.net/haber/278818/igdirda-kadin-cinayeti", "type": "boundary", "who": "Kocas\u0131", "year": 2016}, "type": "Feature"}, {"geometry": {"coordinates": [29.00774, 41.012662], "type": "Point"}, "properties": {"city": "\u0130stanbul", "date": "06/05/2016", "death": "Kesici Alet", "name": "Asmer Guliyeva", "reason": "Tart\u0131\u015fma", "req": "Yok", "source": "http://www.sozcu.com.tr/2016/gundem/uskudarda-kadin-cinayeti-1218348/", "type": "boundary", "who": "Kocas\u0131", "year": 2016}, "type": "Feature"}, {"geometry": {"coordinates": [28.950683, 41.078728], "type": "Point"}, "properties": {"city": "\u0130stanbul", "date": "04/05/2016", "death": "Kesici Alet", "name": "Ne\u015fe Ad\u0131g\u00fczel", "reason": "Tart\u0131\u015fma, Namus", "req": "Yok", "source": "http://www.haberturk.com/gundem/haber/1234846-tartistigi-annesini-15-yerinden-bicakladi", "type": "boundary", "who": "O\u011flu", "year": 2016}, "type": "Feature"}, {"geometry": {"coordinates": [26.560244, 41.708441], "type": "Point"}, "properties": {"city": "Edirne", "date": "10/05/2016", "death": "Ate\u015fli Silah", "name": "Dilek \u0130nan\u00e7", "reason": "Mal Tart\u0131\u015fmas\u0131", "req": "Yok", "source": "http://www.milliyet.com.tr/mal-paylasimi-kavgasinda-ayrildigi-gundem-2242905/", "type": "boundary", "who": "Babas\u0131", "year": 2016}, "type": "Feature"}, {"geometry": {"coordinates": [32.845922, 39.914083], "type": "Point"}, "properties": {"city": "Ankara", "date": "11/05/2016", "death": "Ate\u015fli Silah", "name": "Necmiye Ceren Baran", "reason": "Tart\u0131\u015fma", "req": "Yok", "source": "http://www.habersert.com/gundem/ankara-da-dehset-20-yasindaki-ceren-baran-oldu-polis-kendi-kafasina--923", "type": "boundary", "who": "Eski Sevgilisi", "year": 2016}, "type": "Feature"}, {"geometry": {"coordinates": [31.612774, 40.761641], "type": "Point"}, "properties": {"city": "Bolu", "date": "16/05/2016", "death": "\u00c7arpma Sonucu", "name": "Sevim Karanl\u0131k", "reason": "Tespit Edilemeyen", "req": "Yok", "source": "http://www.yenicaggazetesi.com.tr/polis-esinin-sir-olumunde-yeni-gelisme-137575h.htm", "type": "boundary", "who": "Tespit Edilemeyen", "year": 2016}, "type": "Feature"}, {"geometry": {"coordinates": [27.12185, 38.460224], "type": "Point"}, "properties": {"city": "\u0130zmir", "date": "08/03/2016", "death": "Kesici Alet", "name": "Neriman Ak\u00e7ay", "reason": "Tart\u0131\u015fma", "req": "Yok", "source": "http://www.milliyet.com.tr/kadinlar-gununde-kadin-cinayeti-izmir-yerelhaber-1253404/", "type": "boundary", "who": "Sevgilisi", "year": 2016}, "type": "Feature"}, {"geometry": {"coordinates": [27.128857, 38.474238], "type": "Point"}, "properties": {"city": "\u0130zmir", "date": "26/04/2016", "death": "Ate\u015fli Silah", "name": "Simge A.", "reason": "Bo\u015fanma Talebi", "req": "Yok", "source": "http://www.milliyet.com.tr/izmir-de-kadin-cinayeti-gundem-2234061/", "type": "boundary", "who": "Kocas\u0131", "year": 2016}, "type": "Feature"}, {"geometry": {"coordinates": [35.323959, 37.024699], "type": "Point"}, "properties": {"city": "Adana", "date": "27/05/2016", "death": "Ate\u015fli Silah", "name": "Z\u00fcbeyde \u00dcnl\u00fc", "reason": "Reddetme", "req": "Yok", "source": "http://www.mynet.com/haber/yasam/barisma-teklifini-reddeden-sevgilisini-oldurdu-annesini-de-yaraladi-2470808-1", "type": "boundary", "who": "Eski Sevgilisi", "year": 2016}, "type": "Feature"}, {"geometry": {"coordinates": [34.625141, 36.844925], "type": "Point"}, "properties": {"city": "Mersin", "date": "18/05/2016", "death": "Kesici Alet", "name": "Durdu Ta\u015f", "reason": "Tespit Edilemeyen", "req": "Yok", "source": "http://www.mynet.com/haber/yasam/sizofren-evlat-dehseti-annesini-oldurup-basini-kapiya-asti-2458112-1", "type": "boundary", "who": "O\u011flu", "year": 2016}, "type": "Feature"}, {"geometry": {"coordinates": [27.42739, 38.61292], "type": "Point"}, "properties": {"city": "Manisa", "date": "30/05/2016", "death": "Ate\u015fli Silah", "name": "Gizem Bulut", "reason": "Bo\u015fanma Talebi", "req": "Yok", "source": "http://www.cumhuriyet.com.tr/haber/turkiye/542720/Manisa_da_kadin_cinayeti__Bosanma_davasi_suren_esini_oldurdu.html", "type": "boundary", "who": "Kocas\u0131", "year": 2016}, "type": "Feature"}, {"geometry": {"coordinates": [27.41886, 37.03322], "type": "Point"}, "properties": {"city": "Bodrum", "date": "28/05/2016", "death": "Ate\u015fli Silah", "name": "Ay\u015feg\u00fcl Aslan", "reason": "Reddedilme, Namus", "req": "Yok", "source": "http://www.hurriyet.com.tr/camasirhanede-cinayet-eski-esini-oldurdu-40110309", "type": "boundary", "who": "Eski Kocas\u0131", "year": 2016}, "type": "Feature"}, {"geometry": {"coordinates": [28.390908, 37.188603], "type": "Point"}, "properties": {"city": "Mu\u011fla", "date": "25/05/2016", "death": "Yanma", "name": "Elmas Ba\u015fd\u00fczen", "reason": "Tespit Edilemeyen", "req": "Yok", "source": "http://www.sozcu.com.tr/2016/gundem/uzerine-benzin-dokulerek-yakilan-kadin-hastanede-oldu-2-1246484/", "type": "boundary", "who": "Tan\u0131d\u0131\u011f\u0131 Birisi", "year": 2016}, "type": "Feature"}, {"geometry": {"coordinates": [34.590106, 36.824905], "type": "Point"}, "properties": {"city": "Mersin", "date": "09/04/2016", "death": "Ate\u015fli Silah", "name": "Serap Demir", "reason": "Tart\u0131\u015fma", "req": "Var", "source": "http://www.milliyet.com.tr/eski-sevgilisini-vurup-intihar-etti-gundem-2224100/", "type": "boundary", "who": "Eski Sevgilisi", "year": 2016}, "type": "Feature"}, {"geometry": {"coordinates": [28.953686, 41.084734], "type": "Point"}, "properties": {"city": "\u0130stanbul", "date": "14/06/2016", "death": "Ate\u015fli Silah", "name": "Y\u0131ld\u0131z Ery\u0131lmaz", "reason": "K\u0131skan\u00e7l\u0131k", "req": "Yok", "source": "http://www.milliyet.com.tr/baskasi-ile-evlenen-eski-esini-gundem-2262434/", "type": "boundary", "who": "Eski Kocas\u0131", "year": 2016}, "type": "Feature"}, {"geometry": {"coordinates": [41.12791, 37.8829], "type": "Point"}, "properties": {"city": "Batman", "date": "03/01/2016", "death": "Kesici Alet", "name": "Song\u00fcl Demir", "reason": "Tespit Edilemeyen", "req": "Yok", "source": "http://www.milliyet.com.tr/nisanlisinin-bogazini-keserek-gundem-2173228/", "type": "boundary", "who": "Ni\u015fanl\u0131s\u0131", "year": 2016}, "type": "Feature"}, {"geometry": {"coordinates": [36.2489, 37.07259], "type": "Point"}, "properties": {"city": "Osmaniye", "date": "01/01/2016", "death": "Ate\u015fli Silah", "name": "\u015e\u00fckran Ak\u00e7akoca", "reason": "Tespit Edilemeyen", "req": "Yok", "source": "http://www.milliyet.com.tr/kizini-oldurdu-torununu-yaraladi-gundem-2172636/", "type": "boundary", "who": "Babas\u0131", "year": 2016}, "type": "Feature"}, {"geometry": {"coordinates": [29.097689, 40.218404], "type": "Point"}, "properties": {"city": "Bursa", "date": "19/01/2016", "death": "Kesici Alet ", "name": "Muazzez Bak\u0131ryapan", "reason": "Tespit Edilemeyen", "req": "Yok", "source": "http://www.onmedya.com.tr/annesini-243-kez-bicaklayarak-oldurmustu--cezaevi-kogusunda-neler-yasandi--1038.html", "type": "boundary", "who": "O\u011flu", "year": 2016}, "type": "Feature"}, {"geometry": {"coordinates": [34.612128, 36.808889], "type": "Point"}, "properties": {"city": "Mersin", "date": "19/09/2016", "death": "Ate\u015fli Silah", "name": "T\u00fcrkan Mavi", "reason": "Tespit Edilemeyen", "req": "Yok", "source": "http://www.milliyet.com.tr/eski-esi-ve-elektrikciyi-olduren-gundem-2319238/", "type": "boundary", "who": "Eski Kocas\u0131", "year": 2016}, "type": "Feature"}, {"geometry": {"coordinates": [31.612774, 40.746626], "type": "Point"}, "properties": {"city": "Bolu", "date": "30/09/2016", "death": "Kesici Alet", "name": "Hayriye Aslan", "reason": "Tart\u0131\u015fma", "req": "Yok", "source": "http://www.milliyet.com.tr/52-yillik-esini-bicaklayarak-gundem-2318994/", "type": "boundary", "who": "Kocas\u0131", "year": 2016}, "type": "Feature"}, {"geometry": {"coordinates": [27.421384, 38.613921], "type": "Point"}, "properties": {"city": "Manisa", "date": "28/03/2016", "death": "Ate\u015fli Silah", "name": "Ay\u015feg\u00fcl \u015eim\u015fek", "reason": "Tespit Edilemeyen", "req": "Yok", "source": "http://www.milliyet.com.tr/katil-ese-uygulanan-indirim-isyan-gundem-2318993/", "type": "boundary", "who": "Kocas\u0131", "year": 2016}, "type": "Feature"}, {"geometry": {"coordinates": [27.129858, 38.391155], "type": "Point"}, "properties": {"city": "\u0130zmir", "date": "29/09/2016", "death": "Ate\u015fli Silah", "name": "\u00d6zlem Y\u0131ld\u0131rmaz K\u0131n\u0131k", "reason": "Reddedilme", "req": "Yok", "source": "http://www.milliyet.com.tr/-kizima-bunu-yapan-insan-olamaz--gundem-2318857/http://www.milliyet.com.tr/ayrildigi-liseli-kiz-arkadasini-gundem-2318336/", "type": "boundary", "who": "Eski Sevgilisi", "year": 2016}, "type": "Feature"}, {"geometry": {"coordinates": [30.723254, 36.885967], "type": "Point"}, "properties": {"city": "Antalya", "date": "28/09/2016", "death": "Ate\u015fli Silah", "name": "Kadriye Polat", "reason": "Reddedilme", "req": "Yok", "source": "http://www.milliyet.com.tr/sevgilisini-oldurup-ailesini-gundem-2317881/", "type": "boundary", "who": "Tan\u0131d\u0131\u011f\u0131 Birisi", "year": 2016}, "type": "Feature"}, {"geometry": {"coordinates": [29.00774, 41.078728], "type": "Point"}, "properties": {"city": "\u0130stanbul", "date": "17/09/2016", "death": "Kesici Alet", "name": "Asma Bouchane ", "reason": "Tart\u0131\u015fma", "req": "Yok", "source": "http://www.milliyet.com.tr/beyoglu-ndaki-cinayeti-guvenlik-gundem-2317617/", "type": "boundary", "who": "Tan\u0131d\u0131\u011f\u0131 Birisi", "year": 2016}, "type": "Feature"}, {"geometry": {"coordinates": [29.98706, 39.42087], "type": "Point"}, "properties": {"city": "K\u00fctahya", "date": "22/09/2016", "death": "Ate\u015fli Silah", "name": "Esma Kamal\u0131", "reason": "Tespit Edilemeyen", "req": "Yok", "source": "http://www.milliyet.com.tr/eski-esini-oldurup-intihar-etti-gundem-2314669/", "type": "boundary", "who": "Eski Kocas\u0131", "year": 2016}, "type": "Feature"}, {"geometry": {"coordinates": [38.31982, 38.349], "type": "Point"}, "properties": {"city": "Malatya", "date": "21/09/2016", "death": "Kesici Alet", "name": "Zekiye Bak\u0131rc\u0131", "reason": "Belirtilmemi\u015f", "req": "Yok", "source": "http://www.milliyet.com.tr/esini-oldurup-polisi-aradi-gundem-2314081/", "type": "boundary", "who": "Kocas\u0131", "year": 2016}, "type": "Feature"}, {"geometry": {"coordinates": [35.000899, 40.53023], "type": "Point"}, "properties": {"city": "\u00c7orum", "date": "23/09/2016", "death": "Kesici Alet", "name": "\u00dcmmihan Kara", "reason": "Tart\u0131\u015fma", "req": "Yok ", "source": "http://www.milliyet.com.tr/tartistigi-esini-bicaklayarak-gundem-2315231/", "type": "boundary", "who": "Kocas\u0131", "year": 2016}, "type": "Feature"}, {"geometry": {"coordinates": [38.27592, 37.76049], "type": "Point"}, "properties": {"city": "Ad\u0131yaman", "date": "07/10/2016", "death": "Bo\u011fma", "name": " Hava Eker", "reason": "Tart\u0131\u015fma", "req": "Yok", "source": "http://www.milliyet.com.tr/uc-kadin-daha-esi-tarafindan-gundem-2322866/", "type": "boundary", "who": "Kocas\u0131", "year": 2016}, "type": "Feature"}, {"geometry": {"coordinates": [39.31856, 37.75546], "type": "Point"}, "properties": {"city": "Siverek", "date": "07/09/2016", "death": "Ate\u015fli Silah", "name": "Sema Acar", "reason": "Tespit Edilemeyen", "req": "Yok", "source": "http://www.milliyet.com.tr/uc-kadin-daha-esi-tarafindan-gundem-2322866/", "type": "boundary", "who": "Kocas\u0131", "year": 2016}, "type": "Feature"}, {"geometry": {"coordinates": [29.011744, 41.021671], "type": "Point"}, "properties": {"city": "\u0130stanbul", "date": "07/10/2016", "death": "Ate\u015fli Silah", "name": "M\u00fcberra B.", "reason": "Tart\u0131\u015fma", "req": "Yok", "source": "http://www.milliyet.com.tr/uc-kadin-daha-esi-tarafindan-gundem-2322866/", "type": "boundary", "who": "Kocas\u0131", "year": 2016}, "type": "Feature"}, {"geometry": {"coordinates": [41.156939, 37.846864], "type": "Point"}, "properties": {"city": "Batman", "date": "03/08/2016", "death": "Darp, Elektrik verme", "name": "Emine Demirta\u015f", "reason": "Namus", "req": "Yok", "source": "http://www.internethaber.com/batmanda-vahsi-namus-cinayeti-1704229h.htm", "type": "boundary", "who": "Erkek Karde\u015fi, Babas\u0131", "year": 2016}, "type": "Feature"}, {"geometry": {"coordinates": [29.977598, 40.763408], "type": "Point"}, "properties": {"city": "Kocaeli", "date": "26/08/2016", "death": "Ate\u015fli Silah", "name": "Nazl\u0131 G.", "reason": "Silah\u0131n\u0131 Temizlerken", "req": "Yok", "source": "http://www.posta.com.tr/silahini-temizlerken-karisini-oldurdu-haberi-1223370", "type": "boundary", "who": "Kocas\u0131", "year": 2016}, "type": "Feature"}, {"geometry": {"coordinates": [30.68922, 36.922003], "type": "Point"}, "properties": {"city": "Antalya", "date": "27/08/2016", "death": "Zorla U\u00e7urumdan Atma", "name": "Gizem \u015eopal", "reason": "Tart\u0131\u015fma", "req": "Yok", "source": "http://haber.sol.org.tr/toplum/antalyada-kadin-cinayeti-sevgilisini-sacindan-tutup-olume-surukledi-167274", "type": "boundary", "who": "Sevgilisi", "year": 2016}, "type": "Feature"}, {"geometry": {"coordinates": [40.22071, 37.900426], "type": "Point"}, "properties": {"city": "Diyarbak\u0131r", "date": "30/08/2016", "death": "Ate\u015fli Silah", "name": "\u00c7i\u011fdem Pala", "reason": "Tespit Edilemeyen", "req": "Yok", "source": "http://www.birgun.net/haber-detay/diyarbakir-da-24-yasindaki-kadin-esi-tarafindan-olduruldu-126237.html", "type": "boundary", "who": "Kocas\u0131", "year": 2016}, "type": "Feature"}, {"geometry": {"coordinates": [29.031764, 41.096746], "type": "Point"}, "properties": {"city": "\u0130stanbul", "date": "02/09/2016", "death": "Darp, Bo\u011fma", "name": "Violet Nantoba", "reason": "Tespit Edilemeyen", "req": "Yok", "source": "http://www.haberturk.com/gundem/haber/1291441-fatihte-uganda-uyruklu-kadin-olduruldu", "type": "boundary", "who": "Tan\u0131d\u0131\u011f\u0131 Birileri", "year": 2016}, "type": "Feature"}, {"geometry": {"coordinates": [34.616132, 36.816897], "type": "Point"}, "properties": {"city": "Mersin", "date": "04/09/2016", "death": "Kesici Alet", "name": "Suphiye Av\u015far", "reason": "Bar\u0131\u015fma \u0130ste\u011fini Reddetme", "req": "Yok", "source": "http://www.star.com.tr/guncel/vahsice-oldurulen-kadinin-cinayet-zanlisi-kardesi-cikti-haber-1139350/", "type": "boundary", "who": "Erkek Karde\u015fi", "year": 2016}, "type": "Feature"}, {"geometry": {"coordinates": [35.15022, 42.02436], "type": "Point"}, "properties": {"city": "Sinop", "date": "06/09/2016", "death": "Darp", "name": "Beyaz \u00c7etinkaya", "reason": "Gasp", "req": "Yok", "source": "http://www.haberx.com/sinopta_altinlarini_gasp_ettigi_kadini_oldurdu(17,n,12346331,987).aspx", "type": "boundary", "who": "Tan\u0131mad\u0131\u011f\u0131 Birisi", "year": 2016}, "type": "Feature"}, {"geometry": {"coordinates": [29.005738, 41.073723], "type": "Point"}, "properties": {"city": "\u0130stanbul", "date": "06/09/2016", "death": "Ate\u015fli Silah", "name": "Mine Demet G\u00fcng\u00f6r", "reason": "Tespit Edilemeyen", "req": "Yok", "source": "http://www.cumhuriyet.com.tr/haber/turkiye/596043/Yarbay_Mine_Demet_Gungor_un_sir_olumu.html", "type": "boundary", "who": "Tespit Edilemeyen", "year": 2016}, "type": "Feature"}, {"geometry": {"coordinates": [40.212702, 37.949475], "type": "Point"}, "properties": {"city": "Diyarbak\u0131r", "date": "07/09/2016", "death": "Ate\u015fli Silah", "name": "H.A.", "reason": "Tespit Edilemeyen", "req": "Yok", "source": "http://www.haberturk.com/gundem/haber/1293640-diyarbakirda-bir-kadin-eski-esi-tarafindan-olduruldu?utm_source=diyarbakirsoz.com", "type": "boundary", "who": "Eski Kocas\u0131", "year": 2016}, "type": "Feature"}, {"geometry": {"coordinates": [30.50671, 39.78267], "type": "Point"}, "properties": {"city": "Eski\u015fehir", "date": "08/09/2016", "death": "Tespit Edilemeyen", "name": "Dilek Uslu", "reason": "Tespit Edilemeyen", "req": "Yok", "source": "http://www.haberler.com/kolunda-serum-takili-kadin-otomobilde-olu-bulundu-8763800-haberi/", "type": "boundary", "who": "Tespit Edilemeyen", "year": 2016}, "type": "Feature"}, {"geometry": {"coordinates": [27.187916, 38.46623], "type": "Point"}, "properties": {"city": "\u0130zmir", "date": "09/09/2016", "death": "Ate\u015fli Silah", "name": "Esen Yaman", "reason": "Tart\u0131\u015fma", "req": "Yok", "source": "http://www.yeniasir.com.tr/ucuncusayfa/2016/09/10/tartistigi-kadini-tabancayla-vurup-oldurdu", "type": "boundary", "who": "Sevgilisi", "year": 2016}, "type": "Feature"}, {"geometry": {"coordinates": [28.970703, 41.087737], "type": "Point"}, "properties": {"city": "\u0130stanbul", "date": "11/10/2016", "death": "Kesici Alet", "name": "\u00c7i\u011fdem Ko\u00e7", "reason": "Tespit Edilemeyen", "req": "Yok", "source": "http://www.hurriyet.com.tr/sokak-ortasinda-oldurdu-lincten-polis-kurtardi-40245940", "type": "boundary", "who": "Eski Kocas\u0131", "year": 2016}, "type": "Feature"}, {"geometry": {"coordinates": [30.725256, 36.872954], "type": "Point"}, "properties": {"city": "Antalya", "date": "14/09/2016", "death": "Ate\u015fli Silah", "name": "Fatma Alp", "reason": "Reddedilme, Tart\u0131\u015fma", "req": "Yok", "source": "http://www.haberturk.com/gundem/haber/1296675-antalyada-5-cocuk-annesi-kadin-pompali-tufekle-olduruldu", "type": "boundary", "who": "Eski Sevgilisi", "year": 2016}, "type": "Feature"}, {"geometry": {"coordinates": [27.463905, 36.989176], "type": "Point"}, "properties": {"city": "Bodrum", "date": "15/09/2016", "death": "Kesici Alet", "name": "M\u00fchtez Acuna\u015f", "reason": "Tespit Edilemeyen", "req": "Yok", "source": "http://www.saatbasihaber.com/bodrum-da-cinayet-kadin-bogazi-keserek-olduruldu/82028/", "type": "boundary", "who": "Tan\u0131d\u0131\u011f\u0131 Birisi", "year": 2016}, "type": "Feature"}, {"geometry": {"coordinates": [32.855932, 39.960129], "type": "Point"}, "properties": {"city": "Ankara", "date": "15/09/2016", "death": "Tespit Edilemeyen", "name": "\u0130simsiz", "reason": "Tespit Edilemeyen", "req": "Tespit Edilemeyen", "source": "http://www.sabah.com.tr/yasam/2016/09/15/baskentte-parcalanmis-kadin-cesedi-bulundu", "type": "boundary", "who": "Tespit Edilemeyen", "year": 2016}, "type": "Feature"}, {"geometry": {"coordinates": [32.867944, 39.875044], "type": "Point"}, "properties": {"city": "Ankara", "date": "17/09/2016", "death": "Kesici Alet", "name": "Ebru Kaya", "reason": "Tart\u0131\u015fma", "req": "Yok", "source": "http://haber.sol.org.tr/toplum/yine-kadin-cinayeti-tartistigi-esini-bicaklayarak-oldurdu-169354", "type": "boundary", "who": "Kocas\u0131", "year": 2016}, "type": "Feature"}, {"geometry": {"coordinates": [29.07867, 40.190376], "type": "Point"}, "properties": {"city": "Bursa", "date": "17/09/2016", "death": "Ate\u015fli Silah", "name": "Alev Karaduman", "reason": "Reddetme", "req": "Yok", "source": "http://ilerihaber.org/icerik/bursada-kadin-cinayeti-teklifini-reddeden-kadini-oldurdu-sonra-intihar-etti-60077.html", "type": "boundary", "who": "Tan\u0131d\u0131\u011f\u0131 Birisi", "year": 2016}, "type": "Feature"}, {"geometry": {"coordinates": [34.663179, 36.767848], "type": "Point"}, "properties": {"city": "Mersin", "date": "18/09/2016", "death": "Kesici Alet", "name": "Semra Ezel", "reason": "Tart\u0131\u015fma", "req": "Yok", "source": "http://haber.sol.org.tr/toplum/mersinde-kadin-cinayeti-169426", "type": "boundary", "who": "Kay\u0131nbiraderi", "year": 2016}, "type": "Feature"}, {"geometry": {"coordinates": [32.831908, 39.920089], "type": "Point"}, "properties": {"city": "Ankara", "date": "18/09/2016", "death": "Ate\u015fli Silah", "name": "Yeliz Y.", "reason": "Bo\u015fanma Talebi, Tart\u0131\u015fma", "req": "Yok", "source": "http://www.haberler.com/ankara-da-kadin-cinayeti-8783996-haberi/", "type": "boundary", "who": "Kocas\u0131", "year": 2016}, "type": "Feature"}, {"geometry": {"coordinates": [27.803491, 37.8709], "type": "Point"}, "properties": {"city": "Ayd\u0131n", "date": "09/10/2016", "death": "Ate\u015fli Silah", "name": "Saniye \u00d6zdemir", "reason": "K\u0131z\u0131n\u0131 Korurken", "req": "Yok", "source": "http://www.hurriyet.com.tr/evi-terkeden-esini-ve-kayinvalidesini-pompaliyla-oldurdu-40243759", "type": "boundary", "who": "Damad\u0131", "year": 2016}, "type": "Feature"}, {"geometry": {"coordinates": [36.55088, 40.31395], "type": "Point"}, "properties": {"city": "Tokat", "date": "14/10/2016", "death": "Ate\u015fli Silah", "name": "Arife \u00c7olak", "reason": "Reddedilme, Tart\u0131\u015fma", "req": "Yok", "source": "http://haber.sol.org.tr/toplum/tokatta-kadin-cinayeti-bosanmak-isteyen-esini-oldurup-intihara-kalkisti-172300", "type": "boundary", "who": "Kocas\u0131", "year": 2016}, "type": "Feature"}, {"geometry": {"coordinates": [27.918232, 39.687472], "type": "Point"}, "properties": {"city": "Bal\u0131kesir", "date": "17/10/2016", "death": "Bo\u011farak", "name": "Samaya K.", "reason": "Reddedilme, Tart\u0131\u015fma", "req": "Yok", "source": "http://www.61saat.com/asayis/beraber-yasadigi-azeri-kadini-bogarak-oldurdu-h346560.html", "type": "boundary", "who": "Sevgilisi", "year": 2016}, "type": "Feature"}, {"geometry": {"coordinates": [35.445472, 38.723923], "type": "Point"}, "properties": {"city": "Kayseri", "date": "17/10/2016", "death": "Kesici Alet", "name": "Sultan Ton", "reason": "Tespit Edilemeyen", "req": "Yok", "source": "http://www.dha.com.tr/yasli-kadin-torunlari-tarafindan-olduruldu_1353254.html", "type": "boundary", "who": "Torunlar\u0131", "year": 2016}, "type": "Feature"}, {"geometry": {"coordinates": [29.069871, 37.802207], "type": "Point"}, "properties": {"city": "Denizli", "date": "21/10/2016", "death": "Kesici Alet", "name": "Sevim Sa\u011fd\u0131\u00e7", "reason": "Tespit Edilemeyen", "req": "Yok", "source": "http://www.marmaragazetesi.com/61-yasindaki-kadin-evinde-bicaklanarak-olduruldu-109290h.htm", "type": "boundary", "who": "Tespit Edilemeyen", "year": 2016}, "type": "Feature"}, {"geometry": {"coordinates": [27.18191, 38.445209], "type": "Point"}, "properties": {"city": "\u0130zmir", "date": "24/10/2016", "death": "Kesici Alet", "name": "Mehtap \u00d6zkanl\u0131", "reason": "Ayr\u0131lma Talebi", "req": "Var", "source": "http://www.habervitrini.com/gundem/kizinin-onunde-sevgilisi-bicaklayip-oldurdu-864786", "type": "boundary", "who": "Sevgilisi", "year": 2016}, "type": "Feature"}, {"geometry": {"coordinates": [28.946679, 41.095745], "type": "Point"}, "properties": {"city": "\u0130stanbul", "date": "26/10/2016", "death": "Ate\u015fli Silah", "name": "Derya Demirkan", "reason": "K\u0131z\u0131n\u0131 G\u00f6rme Talebi", "req": "Yok", "source": "http://www.hurriyet.com.tr/tek-istegi-kizini-gormekti-40259036", "type": "boundary", "who": "Eski Kocas\u0131", "year": 2016}, "type": "Feature"}, {"geometry": {"coordinates": [36.385388, 41.292051], "type": "Point"}, "properties": {"city": "Samsun", "date": "18/10/2016", "death": "Darp", "name": "M\u00fcteran Usta", "reason": "Tespit Edilemeyen", "req": "Yok", "source": "http://www.meydannet.com/haber/samsunda-dustugu-icin-oldu-denilen-kadinin-esi-tarafindan-dovuldugu-iddiasi-34133.html", "type": "boundary", "who": "Kocas\u0131", "year": 2016}, "type": "Feature"}, {"geometry": {"coordinates": [39.48224, 39.74812], "type": "Point"}, "properties": {"city": "Erzincan", "date": "28/10/2016", "death": "Kesici Alet", "name": "G\u00fcler O\u011fuz", "reason": "Tart\u0131\u015fma", "req": "Yok", "source": "http://sondakika-24.com/tr-tr/haberler/32651/erzincanda-cinayet", "type": "boundary", "who": "Kocas\u0131", "year": 2016}, "type": "Feature"}, {"geometry": {"coordinates": [28.384902, 37.220635], "type": "Point"}, "properties": {"city": "Mu\u011fla", "date": "29/10/2016", "death": "Yanma", "name": "Nermin Gezer", "reason": "Tespit Edilemeyen", "req": "Yok", "source": "http://www.star.com.tr/guncel/muglada-yanmis-kadin-cesedi-bulundu-haber-1153914/", "type": "boundary", "who": "Tespit Edilemeyen", "year": 2016}, "type": "Feature"}, {"geometry": {"coordinates": [35.286922, 36.950625], "type": "Point"}, "properties": {"city": "Adana", "date": "05/11/2016", "death": "Bo\u011farak", "name": "Song\u00fcl El\u00e7il", "reason": "Tespit Edilemeyen", "req": "Yok", "source": "http://www.mynet.com/haber/guncel/adanada-coplukte-iki-kadin-bacagi-bulundu-2762106-1", "type": "boundary", "who": "Tespit Edilemeyen", "year": 2016}, "type": "Feature"}, {"geometry": {"coordinates": [39.211746, 38.684847], "type": "Point"}, "properties": {"city": "Elaz\u0131\u011f", "date": "07/11/2016", "death": "Ate\u015fli Silah", "name": "Zeynep Demir", "reason": "Tart\u0131\u015fma", "req": "Yok", "source": "http://ilerihaber.org/icerik/elazigda-kadin-cinayeti-64308.html", "type": "boundary", "who": "Damad\u0131", "year": 2016}, "type": "Feature"}, {"geometry": {"coordinates": [37.362147, 37.05251], "type": "Point"}, "properties": {"city": "Gaziantep", "date": "14/12/2016", "death": "Bo\u011farak", "name": "Bediha Elm\u0131sri", "reason": "Tespit Edilemeyen", "req": "Yok", "source": "http://www.cumhuriyet.com.tr/haber/turkiye/645104/Suriyeli_kadin_evinde_olu_bulundu.html", "type": "boundary", "who": "Tespit Edilemeyen", "year": 2016}, "type": "Feature"}, {"geometry": {"coordinates": [43.73729, 37.57222], "type": "Point"}, "properties": {"city": "Hakkari", "date": "16/12/2016", "death": "Kesici Alet", "name": "S\u00fcheyla Es", "reason": "Tespit Edilemeyen", "req": "Yok", "source": "https://www.evrensel.net/haber/299884/yuksekovada-suheyla-es-adli-kadin-bicaklanarak-olduruldu", "type": "boundary", "who": "Tespit Edilemeyen", "year": 2016}, "type": "Feature"}, {"geometry": {"coordinates": [40.234724, 37.971497], "type": "Point"}, "properties": {"city": "Diyarbak\u0131r", "date": "16/12/2016", "death": "Ate\u015fli Silah", "name": "Amine B.", "reason": "Tespit Edilemeyen", "req": "Yok", "source": "http://www.habermeydan.com/yerel-haberler/diyarbakir-da-uyusturucu-bagimlisi-annesini-ve-iki-akrabasini-h1281.html", "type": "boundary", "who": "O\u011flu", "year": 2016}, "type": "Feature"}, {"geometry": {"coordinates": [27.12185, 38.380144], "type": "Point"}, "properties": {"city": "\u0130zmir", "date": "11/12/2016", "death": "Ate\u015fli Silah", "name": "L.D.", "reason": "Tespit Edilemeyen", "req": "Yok", "source": "http://www.turkiyegazetesi.com.tr/yasam/428006.aspx", "type": "boundary", "who": "Tespit Edilemeyen", "year": 2016}, "type": "Feature"}, {"geometry": {"coordinates": [29.092684, 40.206392], "type": "Point"}, "properties": {"city": "Bursa", "date": "17/12/2016", "death": "Kesici Alet, Ate\u015fli Silah", "name": "G\u00fclnaziye K\u00f6seo\u011flu", "reason": "Bo\u015fanma Talebi", "req": "Var", "source": "http://www.diken.com.tr/yalovada-kadin-cinayeti-bosanmak-isteyen-esini-oldurup-intihar-etti/", "type": "boundary", "who": "Kocas\u0131", "year": 2016}, "type": "Feature"}, {"geometry": {"coordinates": [29.01861, 40.151337], "type": "Point"}, "properties": {"city": "Bursa", "date": "17/12/2016", "death": "Kesici Alet, Ate\u015fli Silah", "name": "Fatma K\u00f6se/Kale", "reason": "K\u0131z\u0131n\u0131\u00a0Korurken", "req": "Var", "source": "http://www.diken.com.tr/yalovada-kadin-cinayeti-bosanmak-isteyen-esini-oldurup-intihar-etti/", "type": "boundary", "who": "Damad\u0131", "year": 2016}, "type": "Feature"}, {"geometry": {"coordinates": [29.036769, 41.083733], "type": "Point"}, "properties": {"city": "\u0130stanbul", "date": "11/02/2016", "death": "Ate\u015fli Silah", "name": "Ya\u011fmur G\u00fcne\u015f", "reason": "Tespit Edilemeyen", "req": "Yok", "source": "http://www.milliyet.com.tr/eyup-teki-cifte-cinayetin-sirri-gundem-2192754/", "type": "boundary", "who": "Tespit Edilemeyen", "year": 2016}, "type": "Feature"}, {"geometry": {"coordinates": [29.27052, 40.65698], "type": "Point"}, "properties": {"city": "Yalova", "date": "11/02/2016", "death": "Ate\u015fli Silah", "name": "Fatma Baysal", "reason": "Bo\u015fanmas\u0131na sebeb oldu\u011funa inanmas\u0131", "req": "Yok", "source": "http://www.gercekgundem.com/guncel/189226/once-kizini-oldurdu-sonra-intihar-etti", "type": "boundary", "who": "Babas\u0131", "year": 2016}, "type": "Feature"}, {"geometry": {"coordinates": [27.478023, 40.964626], "type": "Point"}, "properties": {"city": "Tekirda\u011f", "date": "18/02/2016", "death": "Tespit Edilemeyen", "name": "Nergis \u00d6zen", "reason": "Tespit Edilemeyen", "req": "Yok", "source": "http://www.dha.com.tr/goruntulu-habertekirdag-sahilinde-kadin-cesedi-bulundu_1141555.html", "type": "boundary", "who": "Tespit Edilemeyen", "year": 2016}, "type": "Feature"}, {"geometry": {"coordinates": [32.871948, 39.929098], "type": "Point"}, "properties": {"city": "Ankara", "date": "20/02/2016", "death": "Ate\u015fli Silah", "name": "Gonca Bora", "reason": "Tespit Edilemeyen", "req": "Yok", "source": "http://www.ensonhaber.com/baskentte-kadin-cinayeti-2016-02-20.html", "type": "boundary", "who": "Tespit Edilemeyen", "year": 2016}, "type": "Feature"}, {"geometry": {"coordinates": [29.023756, 41.038688], "type": "Point"}, "properties": {"city": "\u0130stanbul", "date": "22/02/2016", "death": "Ate\u015fli Silah", "name": "Zeynep \u00c7elebi", "reason": "Annesiyle g\u00f6r\u00fc\u015fmesi", "req": "Yok", "source": "http://www.haberturk.com/gundem/haber/1199183-buyukcekmecede-evli-cift-olu-bulundu", "type": "boundary", "who": "Kocas\u0131", "year": 2016}, "type": "Feature"}, {"geometry": {"coordinates": [32.3432, 41.63172], "type": "Point"}, "properties": {"city": "Bart\u0131n", "date": "24/02/2016", "death": "Ate\u015fli Silah", "name": "G\u00fclfer Taflan", "reason": "K\u0131skan\u00e7l\u0131k", "req": "Yok", "source": "http://www.haberler.com/esini-ve-iliskisi-olan-minibuscuyu-olduren-koca-8189662-haberi/", "type": "boundary", "who": "Kocas\u0131", "year": 2016}, "type": "Feature"}, {"geometry": {"coordinates": [27.128857, 38.402166], "type": "Point"}, "properties": {"city": "\u0130zmir", "date": "27/02/2016", "death": "Ate\u015fli Silah", "name": "Zeliha K\u00f6se", "reason": "Ayr\u0131lma Talebi", "req": "Yok", "source": "http://www.milliyet.com.tr/emekli-astsubay-ayrilmak-isteyen-gundem-2200597/", "type": "boundary", "who": "Sevgilisi", "year": 2016}, "type": "Feature"}, {"geometry": {"coordinates": [43.05078, 39.72081], "type": "Point"}, "properties": {"city": "Agr\u0131", "date": "24/02/2016", "death": "Tespit Edilemeyen", "name": "Bilinmiyor", "reason": "Tespit Edilemeyen", "req": "Tespit Edilemeyen", "source": "http://www.haberturk.com/gundem/haber/1200489-dogubayazittaki-derede-kadin-cesedi-bulundu", "type": "boundary", "who": "Tespit Edilemeyen", "year": 2016}, "type": "Feature"}, {"geometry": {"coordinates": [38.78527, 37.15669], "type": "Point"}, "properties": {"city": "\u015eanl\u0131urfa", "date": "09/03/2016", "death": "Darp", "name": "Selma Kiraz", "reason": "Tespit Edilemeyen", "req": "Yok", "source": "http://haber.sol.org.tr/toplum/sanliurfada-kadin-cinayeti-148608", "type": "boundary", "who": "Kocas\u0131", "year": 2016}, "type": "Feature"}, {"geometry": {"coordinates": [29.032765, 41.078728], "type": "Point"}, "properties": {"city": "\u0130stanbul", "date": "04/03/2016", "death": "Kesici Alet", "name": "Buse", "reason": "Nefret Cinayeti", "req": "Yok", "source": "http://www.kaosgl.com/sayfa.php?id=21241", "type": "boundary", "who": "Tespit Edilemeyen", "year": 2016}, "type": "Feature"}, {"geometry": {"coordinates": [31.755791, 41.465915], "type": "Point"}, "properties": {"city": "Zonguldak", "date": "06/03/2016", "death": "Ate\u015fli Silah", "name": "Hilmiye Demirt\u00fcrk", "reason": "O\u011flunu korurken", "req": "Yok", "source": "http://www.milliyet.com.tr/zonguldak-ta-3-kisiyi-olduren-eski-gundem-2205140/", "type": "boundary", "who": "Tan\u0131d\u0131\u011f\u0131 Birisi", "year": 2016}, "type": "Feature"}, {"geometry": {"coordinates": [31.778814, 41.406856], "type": "Point"}, "properties": {"city": "Zonguldak", "date": "06/03/2016", "death": "Ate\u015fli Silah", "name": "Safiye Geyik", "reason": "Reddedilme", "req": "Yok", "source": "http://www.milliyet.com.tr/zonguldak-ta-3-kisiyi-olduren-eski-gundem-2205140/", "type": "boundary", "who": "Sevgilisi", "year": 2016}, "type": "Feature"}, {"geometry": {"coordinates": [28.969702, 41.029679], "type": "Point"}, "properties": {"city": "\u0130stanbul", "date": "06/03/2016", "death": "Kesici Alet", "name": "Yasemin Altun", "reason": "Reddedilme", "req": "Yok", "source": "http://www.haberturk.com/gundem/haber/1205499-istanbulda-koca-vahseti", "type": "boundary", "who": "Kocas\u0131", "year": 2016}, "type": "Feature"}, {"geometry": {"coordinates": [29.022755, 41.095745], "type": "Point"}, "properties": {"city": "\u0130stanbul", "date": "07/03/2016", "death": "Kesici Alet", "name": "Demet Karaka\u015f", "reason": "Bo\u015fanmba Talebi", "req": "Yok", "source": "http://t24.com.tr/haber/umraniyede-bir-kadin-50-bicak-darbesiyle-olduruldu,331055", "type": "boundary", "who": "Kocas\u0131", "year": 2016}, "type": "Feature"}, {"geometry": {"coordinates": [27.120849, 38.448212], "type": "Point"}, "properties": {"city": "\u0130zmir", "date": "07/03/2010", "death": "Ate\u015fli Silah", "name": "M\u00fczeyyen Ne\u015feli", "reason": "Bo\u015fanma Talebi", "req": "Yok", "source": "http://www.sozcu.com.tr/2016/gundem/emekli-polis-memuru-tartistigi-esini-oldurdu-1124419/", "type": "boundary", "who": "Kocas\u0131", "year": 2016}, "type": "Feature"}, {"geometry": {"coordinates": [43.738291, 37.564212], "type": "Point"}, "properties": {"city": "Hakkari", "date": "08/03/2016", "death": "Ate\u015fli Silah", "name": "\u015e\u00fckran Durmaz", "reason": "Tespit Edilemeyen", "req": "Yok", "source": "http://www.sozcu.com.tr/2016/gundem/hakkaride-koca-dehseti-3-olu-2-yarali-1127753/", "type": "boundary", "who": "Akraba", "year": 2016}, "type": "Feature"}, {"geometry": {"coordinates": [43.715268, 37.554202], "type": "Point"}, "properties": {"city": "Hakkari", "date": "08/03/2016", "death": "Ate\u015fli Silah", "name": "Hediye Durmaz", "reason": "Tespit Edilemeyen", "req": "Yok ", "source": "http://www.sozcu.com.tr/2016/gundem/hakkaride-koca-dehseti-3-olu-2-yarali-1127753/", "type": "boundary", "who": "Akraba", "year": 2016}, "type": "Feature"}, {"geometry": {"coordinates": [27.395358, 38.591899], "type": "Point"}, "properties": {"city": "Manisa", "date": "09/03/2016", "death": "Tespit Edilemeyen", "name": "Sahura Kara", "reason": "Tespit Edilemeyen", "req": "Yok", "source": "http://www.sabah.com.tr/yasam/2016/03/08/zihinsel-engelli-kadin-olu-bulundu", "type": "boundary", "who": "Tespit Edilemeyen", "year": 2016}, "type": "Feature"}, {"geometry": {"coordinates": [29.40983, 38.67983], "type": "Point"}, "properties": {"city": "U\u015fak", "date": "13/03/2016", "death": "Bo\u011fma", "name": "Sebahat \u00d6zdemir", "reason": "Tespit Edilemeyen", "req": "Yok", "source": "http://www.haberturk.com/gundem/haber/1209060-usaktaki-ev-yanginindan-cinayet-cikti", "type": "boundary", "who": "Eski Kocas\u0131", "year": 2016}, "type": "Feature"}, {"geometry": {"coordinates": [38.432049, 40.937222], "type": "Point"}, "properties": {"city": "Giresun", "date": "07/07/2016", "death": "Ate\u015fli Silah", "name": "Fatma Balo\u011flu", "reason": "Kavga", "req": "Yok", "source": "http://www.haberturk.com/yerel-haberler/haber/8850182-giresunda-cinayet-1-olu-1-yarali", "type": "boundary", "who": "Eski Kocas\u0131", "year": 2016}, "type": "Feature"}, {"geometry": {"coordinates": [37.87897, 40.9857], "type": "Point"}, "properties": {"city": "Ordu", "date": "07/07/2016", "death": "Ate\u015fli Silah", "name": "Nezile Baydemir", "reason": "Tart\u0131\u015fma", "req": "Yok", "source": "http://www.haberler.com/ordu-da-agabeyi-yengesi-ve-3-yegenini-oldurup-8590680-haberi/", "type": "boundary", "who": "Eni\u015ftesi", "year": 2016}, "type": "Feature"}, {"geometry": {"coordinates": [32.465708, 37.902922], "type": "Point"}, "properties": {"city": "Konya", "date": "07/07/2016", "death": "Ate\u015fli Silah", "name": "Banu Demirok", "reason": "Tespit Edilemeyen", "req": "Yok", "source": "http://www.milliyet.com.tr/sokak-ortasinda-oldurulen-kadin-topraga-konya-yerelhaber-1458338/", "type": "boundary", "who": "Sevgilisi", "year": 2016}, "type": "Feature"}, {"geometry": {"coordinates": [29.010743, 41.106756], "type": "Point"}, "properties": {"city": "\u0130stanbul", "date": "01/08/2016", "death": "Yanma", "name": "Hande Kader", "reason": "Nefret Cinayeti", "req": "Yok", "source": "http://haber.sol.org.tr/toplum/trans-kadin-yakilarak-olduruldu-165499", "type": "boundary", "who": "Tespit Edilemeyen", "year": 2016}, "type": "Feature"}, {"geometry": {"coordinates": [27.438401, 38.648956], "type": "Point"}, "properties": {"city": "Manisa", "date": "11/08/2016", "death": "Kesici Alet", "name": "Merve Ece", "reason": "Tespit Edilemeyen", "req": "Yok", "source": "http://www.sondakikaturk.com.tr/asayis/manisa-da-sokak-ortasinda-kadin-cinayeti-h2276.html", "type": "boundary", "who": "Kocas\u0131", "year": 2016}, "type": "Feature"}, {"geometry": {"coordinates": [32.509752, 37.859879], "type": "Point"}, "properties": {"city": "Konya", "date": "12/08/2016", "death": "Ate\u015fli Silah", "name": "Cennet Ayhan", "reason": "Bo\u015fanma Talebi", "req": "Yok", "source": "http://www.milliyet.com.tr/ecem-i-oldurup-gomen-katil-zanlisi-gundem-2612880/", "type": "boundary", "who": "Kocas\u0131", "year": 2016}, "type": "Feature"}, {"geometry": {"coordinates": [29.010743, 41.051701], "type": "Point"}, "properties": {"city": "\u0130stanbul", "date": "02/12/2016", "death": "Kesici Alet, D\u00fc\u015fme", "name": "Netice Ta\u015fdelen", "reason": "Tart\u0131\u015fma", "req": "Yok", "source": "http://www.hurriyet.com.tr/gundem/yazamiyordu-ama-intihar-mektubu-birakmisti-savci-cinayet-dedi-40695900", "type": "boundary", "who": "Kocas\u0131", "year": 2016}, "type": "Feature"}, {"geometry": {"coordinates": [31.15117, 40.84183], "type": "Point"}, "properties": {"city": "D\u00fczce", "date": "31/03/2016", "death": "Darp", "name": "Miyase Bedir", "reason": "Tespit Edilemeyen", "req": "Yok", "source": "http://www.milliyet.com.tr/yasli-kadinin-supheli-olumune-2-gundem-2801156/", "type": "boundary", "who": "Tespit Edilemeyen", "year": 2016}, "type": "Feature"}, {"geometry": {"coordinates": [35.28492, 37.001676], "type": "Point"}, "properties": {"city": "Adana", "date": "07/11/2016", "death": "Ate\u015fli Silah", "name": "\u0130mhan K\u0131l\u0131\u00e7", "reason": "Tart\u0131\u015fma", "req": "Yok", "source": "http://www.milliyet.com.tr/adana-da-esrarengiz-olum-katil-gundem-2340900/", "type": "boundary", "who": "Kocas\u0131", "year": 2016}, "type": "Feature"}, {"geometry": {"coordinates": [35.498525, 38.702902], "type": "Point"}, "properties": {"city": "Kayseri", "date": "06/11/2016", "death": "Kesici Alet", "name": "Amina Almouna", "reason": "K\u0131skan\u00e7l\u0131k", "req": "Yok", "source": "http://www.milliyet.com.tr/suriyeli-koca-5-yasindaki-oglunun-gundem-2340377/", "type": "boundary", "who": "Kocas\u0131", "year": 2016}, "type": "Feature"}, {"geometry": {"coordinates": [35.484511, 38.673873], "type": "Point"}, "properties": {"city": "Kayseri", "date": "08/11/2016", "death": "Ate\u015fli Silah", "name": "\u00dc.D.", "reason": "Bo\u015fanma Talebi", "req": "Yok", "source": "http://www.milliyet.com.tr/bosanmak-isteyen-esini-oldurdu--gundem-2341629/", "type": "boundary", "who": "Kocas\u0131", "year": 2016}, "type": "Feature"}, {"geometry": {"coordinates": [27.114843, 38.412176], "type": "Point"}, "properties": {"city": "\u0130zmir", "date": "22/11/2016", "death": "Ate\u015fli Silah", "name": "Sinem Alptu\u011f", "reason": "Tart\u0131\u015fma, Kavga", "req": "Yok ", "source": "http://www.milliyet.com.tr/bardaki-kavgada-yaralanan-sinem-gundem-2349004/", "type": "boundary", "who": "Tan\u0131mad\u0131\u011f\u0131 Birileri", "year": 2016}, "type": "Feature"}, {"geometry": {"coordinates": [35.313949, 36.939614], "type": "Point"}, "properties": {"city": "Adana", "date": "21/11/2016", "death": "Kesici Alet", "name": "Sibel Keklik", "reason": "Tespit Edilemeyen", "req": "Yok", "source": "http://www.milliyet.com.tr/katliamdan-kurtulan-ebru-nun-gundem-2348541/", "type": "boundary", "who": "Kocas\u0131", "year": 2016}, "type": "Feature"}, {"geometry": {"coordinates": [27.116845, 38.4362], "type": "Point"}, "properties": {"city": "\u0130zmir", "date": "19/11/2016", "death": "Ate\u015fli Silah", "name": "Fatma Elif Uysal", "reason": "Tart\u0131\u015fma", "req": "Yok", "source": "http://www.milliyet.com.tr/eski-esin-dehset-sactigi-anlar-gundem-2347636/", "type": "boundary", "who": "Eski Kocas\u0131", "year": 2016}, "type": "Feature"}, {"geometry": {"coordinates": [32.534777, 37.913933], "type": "Point"}, "properties": {"city": "Konya", "date": "17/11/2016", "death": "Kesici Alet", "name": "Filiz Yurdabak", "reason": "Tart\u0131\u015fma", "req": "Yok", "source": "http://www.milliyet.com.tr/eski-esi-ve-kayinvalidesini-gundem-2346673/", "type": "boundary", "who": "Eski Kocas\u0131", "year": 2016}, "type": "Feature"}, {"geometry": {"coordinates": [32.501744, 37.905925], "type": "Point"}, "properties": {"city": "Konya", "date": "17/11/2016", "death": "Kesici Alet", "name": "G\u00fcl\u015fan Yurdabak", "reason": "K\u0131z\u0131n\u0131 Korurken", "req": "Yok", "source": "http://www.milliyet.com.tr/eski-esi-ve-kayinvalidesini-gundem-2346673/", "type": "boundary", "who": "Eski Damad\u0131", "year": 2016}, "type": "Feature"}, {"geometry": {"coordinates": [30.031104, 39.381831], "type": "Point"}, "properties": {"city": "K\u00fctahya", "date": "16/11/2016", "death": "Ate\u015fli Silah", "name": "Ay\u015fe \u015eahin", "reason": "Tespit Edilemeyen", "req": "Yok", "source": "http://www.milliyet.com.tr/oglu-degil-katlettigi-yegeni-icin-gundem-2345759/", "type": "boundary", "who": "Sevgilisi", "year": 2016}, "type": "Feature"}, {"geometry": {"coordinates": [32.538781, 37.862882], "type": "Point"}, "properties": {"city": "Konya", "date": "16/11/2016", "death": "Ate\u015fli Silah", "name": "Havva Er", "reason": "Tespit Edilemeyen", "req": "Yok", "source": "http://www.milliyet.com.tr/basindan-tabancayla-vurulan-kadin-gundem-2344261/", "type": "boundary", "who": "Arkada\u015f\u0131", "year": 2016}, "type": "Feature"}, {"geometry": {"coordinates": [37.922013, 41.004719], "type": "Point"}, "properties": {"city": "Ordu", "date": "11/11/2016", "death": "Bo\u011fulma", "name": "Narg\u00fcl \u00d6lmez", "reason": "Tespit Edilemeyen", "req": "Yok", "source": "http://www.milliyet.com.tr/korkunc-cinayet-mahalleye-koku-yayi-gundem-2343328/", "type": "boundary", "who": "Evey O\u011flu", "year": 2016}, "type": "Feature"}, {"geometry": {"coordinates": [28.990723, 41.076726], "type": "Point"}, "properties": {"city": "\u0130stanbul", "date": "10/11/2016", "death": "Ate\u015fli Silah", "name": "K\u00fcbra Kar\u011f\u0131n", "reason": "Ayr\u0131lma Talebi", "req": "Yok", "source": "http://www.milliyet.com.tr/ayrilmak-isteyen-sevgilisini-gundem-2342560/", "type": "boundary", "who": "Sevgilisi", "year": 2016}, "type": "Feature"}, {"geometry": {"coordinates": [29.020612, 40.201387], "type": "Point"}, "properties": {"city": "Bursa", "date": "03/12/2016", "death": "Ate\u015fli Silah", "name": "Tu\u011f\u00e7e Uluda\u011f", "reason": "Reddedilme", "req": "Var", "source": "http://www.cumhuriyet.com.tr/haber/turkiye/639562/Bir_erkek_vahseti_daha..._Evlilik_teklifini_reddetti_diye_oldurdu.html", "type": "boundary", "who": "Tan\u0131d\u0131\u011f\u0131 Birisi", "year": 2016}, "type": "Feature"}, {"geometry": {"coordinates": [29.941014, 39.423873], "type": "Point"}, "properties": {"city": "K\u00fctahya", "date": "04/12/2016 ", "death": "Ate\u015fli Silah", "name": "Vildan Kandemir", "reason": "Tart\u0131\u015fma", "req": "Yok", "source": "http://www.milliyet.com.tr/esini-olduren-koca-arkadasinin-gundem-2355919/", "type": "boundary", "who": "Kocas\u0131", "year": 2016}, "type": "Feature"}, {"geometry": {"coordinates": [31.580742, 40.772652], "type": "Point"}, "properties": {"city": "Bolu", "date": "10/12/2016", "death": "Ate\u015fli Silah", "name": "Berfin Y\u0131ld\u0131z", "reason": "Reddedilme", "req": "Yok", "source": "http://www.milliyet.com.tr/tekstil-iscisi-kacirmaya-gundem-2359516/http://www.milliyet.com.tr/universiteli-berfin-i-oldurdu--gundem-2596511/", "type": "boundary", "who": "Eski Sevgilisi", "year": 2016}, "type": "Feature"}, {"geometry": {"coordinates": [35.307943, 37.016691], "type": "Point"}, "properties": {"city": "Adana", "date": "10/12/2016", "death": "Bo\u011fularak", "name": "Song\u00fcl E.", "reason": "Tespit Edilemeyen", "req": "Yok", "source": "http://www.milliyet.com.tr/parcalara-ayrilan-songul-un-ilk-gundem-2359395/", "type": "boundary", "who": "Tan\u0131mad\u0131\u011f\u0131 Birisi", "year": 2016}, "type": "Feature"}, {"geometry": {"coordinates": [35.337973, 36.973648], "type": "Point"}, "properties": {"city": "Adana", "date": "09/12/2016", "death": "Darp", "name": "\u015eehriban Elmas", "reason": "Tart\u0131\u015fma", "req": "Yok", "source": "http://www.milliyet.com.tr/karisini-doverek-oldurdu-ifadeleri-gundem-2358810/", "type": "boundary", "who": "Kocas\u0131", "year": 2016}, "type": "Feature"}, {"geometry": {"coordinates": [28.965698, 41.036686], "type": "Point"}, "properties": {"city": "\u0130stanbul", "date": "09/12/2016", "death": "Ate\u015fi Silah, Darp", "name": "Nisa \u00d6zlem \u0130n\u00e7ke\n\n\n\u0130n\u00e7ke", "reason": "Bo\u015fanma Talebi", "req": "Yok", "source": "http://www.milliyet.com.tr/duyulmasin-diye-muzigi-son-ses-gundem-2358802/http://www.milliyet.com.tr/esini-olduren-sanik-hakkinda-savci-gundem-2571289/", "type": "boundary", "who": "Kocas\u0131", "year": 2016}, "type": "Feature"}, {"geometry": {"coordinates": [37.339124, 37.081539], "type": "Point"}, "properties": {"city": "Gazianteop", "date": "02/11/2016", "death": "Bo\u011fularak", "name": "Merve \u00c7o\u015fkun", "reason": "Tart\u0131\u015fma", "req": "Yok", "source": "http://www.aksam.com.tr/yasam/bir-kadin-cinayeti-daha-bogularak-olduruldu/haber-562770", "type": "boundary", "who": "Sevgilisi", "year": 2016}, "type": "Feature"}, {"geometry": {"coordinates": [35.360996, 37.028703], "type": "Point"}, "properties": {"city": "Adana", "date": "03/02/2016", "death": "Ate\u015fli Silah", "name": "Y\u0131ld\u0131z Tongul", "reason": "\u0130li\u015fkisi olmas\u0131", "req": "Yok", "source": "https://www.cihan.com.tr/tr/adana-sokak-ortasi-sevgili-murat-uygun-yildiz-tongul-cinayeti-2003465.htmhttp://www.milliyet.com.tr/2-ayri-cinayetin-farkli-gundem-2193202/", "type": "boundary", "who": "Abisi", "year": 2016}, "type": "Feature"}, {"geometry": {"coordinates": [28.980713, 41.038688], "type": "Point"}, "properties": {"city": "\u0130stanbul", "date": "12/02/2016", "death": "Ate\u015fli Silah", "name": "Elif Zelal Yeni", "reason": "Ayr\u0131lma Talebi", "req": "Yok", "source": "http://www.milliyet.com.tr/bir-gunde-4-erkek-dehsetine-2-gundem-2193096/", "type": "boundary", "who": "Sevgilisi", "year": 2016}, "type": "Feature"}, {"geometry": {"coordinates": [29.063865, 37.743148], "type": "Point"}, "properties": {"city": "Denizli", "date": "12/02/2016", "death": "Darp", "name": "K\u00fcbra Acar", "reason": "Tespit Edilemeyen", "req": "Yok", "source": "http://www.milliyet.com.tr/bir-gunde-4-erkek-dehsetine-2-gundem-2193096/", "type": "boundary", "who": "Tespit Edilemeyen", "year": 2016}, "type": "Feature"}, {"geometry": {"coordinates": [33.2237, 37.1807], "type": "Point"}, "properties": {"city": "Karaman", "date": "08/02/2016", "death": "Bo\u011fma", "name": "Hatice Aksoy", "reason": "Tecav\u00fcz", "req": "Yok", "source": "http://www.milliyet.com.tr/81-yasindaki-kadinin-katili--gundem-2192934/", "type": "boundary", "who": "Tan\u0131mad\u0131\u011f\u0131 Birisi", "year": 2016}, "type": "Feature"}, {"geometry": {"coordinates": [37.342127, 37.074532], "type": "Point"}, "properties": {"city": "Gaziantep", "date": "12/02/2016", "death": "Ate\u015flil Silah", "name": "Tu\u011fba T.", "reason": "Tespit Edilemeyen", "req": "Yok", "source": "http://www.gazetevatan.com/-dondugumde-herkes-olmustu--914152-yasam/http://www.milliyet.com.tr/dehset-gununden-sonra-ilk-kez-gundem-2192773/", "type": "boundary", "who": "Sevgilisi", "year": 2016}, "type": "Feature"}, {"geometry": {"coordinates": [31.817853, 41.404854], "type": "Point"}, "properties": {"city": "Zonguldak", "date": "24/02/2016", "death": "Kesici Alet", "name": "Necla Sa\u011flam", "reason": "Tespit Edilemeyen", "req": "Yok", "source": "http://www.evrensel.net/haber/273425/zonguldakta-23-yasindaki-genc-kadin-bogazi-kesilmis-halde-bulundu", "type": "boundary", "who": "Tespit Edilemeyen", "year": 2016}, "type": "Feature"}, {"geometry": {"coordinates": [35.325961, 36.99567], "type": "Point"}, "properties": {"city": "Adana", "date": "25/02/2016", "death": "Ate\u015fli Silah", "name": "Burcu Acar", "reason": "Tart\u0131\u015fma", "req": "Yok", "source": "http://www.milliyet.com.tr/esinin-gozleri-onunde-vuruldu-gundem-2199818/", "type": "boundary", "who": "Tan\u0131mad\u0131\u011f\u0131 Birisi", "year": 2016}, "type": "Feature"}, {"geometry": {"coordinates": [40.238728, 37.909435], "type": "Point"}, "properties": {"city": "Diyarbak\u0131r", "date": "24/02/2016", "death": "Kesici Alet", "name": "Hediye Yaz\u0131c\u0131", "reason": "Bo\u015fanma Talebi", "req": "Yok", "source": "http://www.milliyet.com.tr/sokak-ortasinda-oldurulen-kadinin-gundem-2199104/", "type": "boundary", "who": "Kocas\u0131", "year": 2016}, "type": "Feature"}, {"geometry": {"coordinates": [29.987608, 40.760405], "type": "Point"}, "properties": {"city": "Kocaeli", "date": "02/03/2016", "death": "Ate\u015fli Silah", "name": "Beysun \u00d6zkam\u0131\u015fl\u0131", "reason": "Tart\u0131\u015fma", "req": "Yok", "source": "http://www.aksam.com.tr/yasam/tartistigi-esini-oldurup-intihar-etti/haber-494731", "type": "boundary", "who": "Kocas\u0131", "year": 2016}, "type": "Feature"}, {"geometry": {"coordinates": [37.371156, 37.107565], "type": "Point"}, "properties": {"city": "Gaziantep", "date": "04/03/2016", "death": "Yanma", "name": "Bilinmiyor", "reason": "Tespit Edilemeyen", "req": "Tespit Edilemeyen", "source": "http://www.milliyet.com.tr/gaziantep-te-korkunc-olay-gundem-2204173/", "type": "boundary", "who": "Tespit Edilemeyen", "year": 2016}, "type": "Feature"}, {"geometry": {"coordinates": [29.62831, 40.69588], "type": "Point"}, "properties": {"city": "Karam\u00fcrsel", "date": "14/04/2016", "death": "Kesici Alet", "name": "Hatice \u00d6zt\u00fcrk", "reason": "Tart\u0131\u015fma", "req": "Yok", "source": "http://www.milliyet.com.tr/annesinin-basini-keserek-olduren-gundem-2227022/", "type": "boundary", "who": "O\u011flu", "year": 2016}, "type": "Feature"}, {"geometry": {"coordinates": [27.164893, 38.382146], "type": "Point"}, "properties": {"city": "\u0130zmir", "date": "14/04/2016", "death": "Kesici Alet", "name": "R\u00fcya P.", "reason": "Tespit Edilemeyen", "req": "Yok", "source": "http://www.milliyet.com.tr/esini-25-kez-bicaklayan-adam-gundem-2227019/", "type": "boundary", "who": "Kocas\u0131", "year": 2016}, "type": "Feature"}, {"geometry": {"coordinates": [38.801286, 37.172706], "type": "Point"}, "properties": {"city": "\u015eanl\u0131urfa", "date": "14/04/2016", "death": "Darp", "name": "Fatma Karaci\u011fa", "reason": "Tespit Edilemeyen", "req": "Yok", "source": "http://www.milliyet.com.tr/siverek-teki-hamile-kadin-gundem-2226961/", "type": "boundary", "who": "\u00dcvey O\u011flu", "year": 2016}, "type": "Feature"}, {"geometry": {"coordinates": [35.479506, 38.707907], "type": "Point"}, "properties": {"city": "Kayseri", "date": "04/04/2016", "death": "Darp, Vurucu Alet", "name": "G\u00f6n\u00fcl G\u00fcrb\u00fcz", "reason": "Tart\u0131\u015fma", "req": "Yok", "source": "http://www.gazeteyeniyuzyil.com/haber/3-sayfa/4-cocuk-annesi-kadin-baltayla-olduruldu-24621", "type": "boundary", "who": "Kocas\u0131", "year": 2016}, "type": "Feature"}, {"geometry": {"coordinates": [32.900977, 39.952121], "type": "Point"}, "properties": {"city": "Ankara", "date": "03/04/2016", "death": "Ate\u015fli Silah", "name": "G\u00fclay \u00d6zt\u00fcrk", "reason": "Tart\u0131\u015fma", "req": "Yok", "source": "http://www.haber3.com/baskentte-kadin-cinayeti-3942133h.htmhttp://www.milliyet.com.tr/esini-oldurdu-son-sozu-sorulunca-gundem-2319436/", "type": "boundary", "who": "Kocas\u0131", "year": 2016}, "type": "Feature"}, {"geometry": {"coordinates": [27.517062, 40.970632], "type": "Point"}, "properties": {"city": "Tekirda\u011f", "date": "06/04/2016", "death": "Kesici Alet", "name": "Melek \u015eeng\u00f6n\u00fcl", "reason": "Tespit Edilemeyen", "req": "Yok", "source": "http://www.evrensel.net/haber/277066/tekirdagda-bir-kadin-evinde-olduruldu", "type": "boundary", "who": "Tespit Edilemeyen", "year": 2016}, "type": "Feature"}, {"geometry": {"coordinates": [37.36515, 37.104562], "type": "Point"}, "properties": {"city": "Gaziantep", "date": "11/04/2016", "death": "Kesici Alet", "name": "Filiz \u00c7o\u015fkun", "reason": "Bo\u015fanma Talebi", "req": "Var", "source": "http://www.ensonhaber.com/gaziantepte-kadin-cinayeti-2016-04-11.html", "type": "boundary", "who": "Kocas\u0131", "year": 2016}, "type": "Feature"}, {"geometry": {"coordinates": [39.21575, 38.693856], "type": "Point"}, "properties": {"city": "Elaz\u0131\u011f", "date": "13/04/2016", "death": "Kesici Alet", "name": "G\u00fclcan Demir", "reason": "Tart\u0131\u015fma", "req": "Yok", "source": "http://haber.sol.org.tr/toplum/yine-kadin-cinayeti-tartistigi-esini-bicaklayarak-oldurdu-152376", "type": "boundary", "who": "Kocas\u0131", "year": 2016}, "type": "Feature"}, {"geometry": {"coordinates": [29.066658, 40.209395], "type": "Point"}, "properties": {"city": "Bursa", "date": "16/04/2016", "death": "Ate\u015fli Silah", "name": "G\u00fcll\u00fc\u00a0\u00c7elik", "reason": "Tespit Edilemeyen", "req": "Yok", "source": "http://www.haberturk.com/gundem/haber/1225935-bursada-once-karisini-sonra-kendini-oldurdu", "type": "boundary", "who": "Kocas\u0131", "year": 2016}, "type": "Feature"}, {"geometry": {"coordinates": [32.849926, 39.950119], "type": "Point"}, "properties": {"city": "Ankara", "date": "18/04/2016", "death": "Tespit Edilemeyen", "name": "Aynur B\u0131kmaz", "reason": "Tespit Edilemeyen", "req": "Yok", "source": "http://www.bolugundem.com/annesinin-evinde-olu-bulundu-97212h.htm", "type": "boundary", "who": "Tespit Edilemeyen", "year": 2016}, "type": "Feature"}, {"geometry": {"coordinates": [29.085887, 37.828233], "type": "Point"}, "properties": {"city": "Denizli", "date": "19/04/2016", "death": "Ate\u015fli Silah", "name": "Sultan Zora", "reason": "Tart\u0131\u015fma", "req": "Yok", "source": "http://www.samsunkenthaber.com/haber/turkiye/denizli'de-sok-eden-kadin-cinayeti!-3-cocuk-annesi-sultan-zora-olduruldu/90482.html", "type": "boundary", "who": "Sevgilisi", "year": 2016}, "type": "Feature"}, {"geometry": {"coordinates": [28.938671, 41.019669], "type": "Point"}, "properties": {"city": "\u0130stanbul", "date": "20/04/2016", "death": "Ate\u015fli Silah", "name": "Ya\u011fmur \u00d6n\u00fct", "reason": "Tespit Edilemeyen", "req": "Yok", "source": "http://www.haberler.com/universiteli-genc-tufekle-saka-yaparken-kiz-8373745-haberi/", "type": "boundary", "who": "Sevgilisi", "year": 2016}, "type": "Feature"}, {"geometry": {"coordinates": [30.696227, 36.923004], "type": "Point"}, "properties": {"city": "Antalya", "date": "22/04/2016", "death": "Tespit Edilemeyen", "name": "\u0130rine Karamanyan", "reason": "Tespit Edilemeyen", "req": "Yok", "source": "http://www.sozcu.com.tr/2016/gundem/gurcistan-asilli-kadin-eski-esinin-evinde-olu-bulundu-1197488/", "type": "boundary", "who": "Tespit Edilemeyen", "year": 2016}, "type": "Feature"}, {"geometry": {"coordinates": [27.510055, 40.965627], "type": "Point"}, "properties": {"city": "Tekirda\u011f", "date": "05/02/2016", "death": "Ate\u015fli Silah", "name": "Nuran \u00c7akmak", "reason": "Ayr\u0131lma Talebi", "req": "Yok", "source": "http://www.rotahaber.com/guncel/kocasi-oldurdu-ailesi-cenazeyi-alamadi-h582938.html", "type": "boundary", "who": "Kocas\u0131", "year": 2016}, "type": "Feature"}, {"geometry": {"coordinates": [29.063655, 40.165351], "type": "Point"}, "properties": {"city": "Bursa", "date": "03/02/2016", "death": "Kesici Alet", "name": "T\u00fclin T\u00fcre", "reason": "K\u0131skan\u00e7l\u0131k", "req": "Yok", "source": "http://www.posta.com.tr/3Sayfa/HaberDetay/Karisinin-basina-keserle-vurdu--tarim-ilaci-icti.htm?ArticleID=325226http://www.haberler.com/keserle-yaralayarak-olumune-neden-oldugu-esinin-8143688-haberi/", "type": "boundary", "who": "Kocas\u0131", "year": 2016}, "type": "Feature"}, {"geometry": {"coordinates": [27.455418, 38.565873], "type": "Point"}, "properties": {"city": "Manisa", "date": "07/02/2016", "death": "Tespit Edilemeyen", "name": "S\u0131d\u0131ka Denkta\u015f", "reason": "Tespit Edilemeyen", "req": "Yok", "source": "http://www.f5haber.com/haberturk/manisa-da-kadin-cesedi-bulundu-haberi-5703540/", "type": "boundary", "who": "Tespit Edilemeyen", "year": 2016}, "type": "Feature"}, {"geometry": {"coordinates": [39.71599, 41.00653], "type": "Point"}, "properties": {"city": "Trabzon", "date": "16/03/2016", "death": "Ate\u015fli Silah", "name": "G\u00f6n\u00fcl \u00c7ak\u0131", "reason": "Tespit Edilemeyen", "req": "Yok", "source": "http://www.haberturk.com/gundem/haber/1210527-polis-cinnetinde-olu-sayisi-4e-yukseldi", "type": "boundary", "who": "Kocas\u0131", "year": 2016}, "type": "Feature"}, {"geometry": {"coordinates": [39.728002, 40.980504], "type": "Point"}, "properties": {"city": "Trabzon", "date": "16/03/2016", "death": "Ate\u015fli Silah", "name": "Tansu \u00c7ak\u0131/Tenay", "reason": "Tespit Edilemeyen", "req": "Yok", "source": "http://www.haberturk.com/gundem/haber/1210527-polis-cinnetinde-olu-sayisi-4e-yukseldi", "type": "boundary", "who": "Babas\u0131", "year": 2016}, "type": "Feature"}, {"geometry": {"coordinates": [27.113842, 38.397161], "type": "Point"}, "properties": {"city": "\u0130zmir", "date": "15/03/2016", "death": "Ate\u015fli Silah", "name": "Sueda \u00dc\u00e7o\u011flu", "reason": "Reddedilme", "req": "Yok", "source": "http://haber.star.com.tr/guncel/ayrildigi-sevgilisini-pompaliyla-oldurdu/haber-1096043", "type": "boundary", "who": "Eski Sevgilisi", "year": 2016}, "type": "Feature"}, {"geometry": {"coordinates": [32.868945, 39.906075], "type": "Point"}, "properties": {"city": "Ankara", "date": "18/03/2016", "death": "Ate\u015fli Silah", "name": "N.T.B", "reason": "Reddedilme", "req": "Yok", "source": "http://www.hurriyet.com.tr/polisin-ask-kursunlari-40071710", "type": "boundary", "who": "Eski Sevgilisi", "year": 2016}, "type": "Feature"}, {"geometry": {"coordinates": [27.497042, 40.982644], "type": "Point"}, "properties": {"city": "Tekirda\u011f", "date": "20/03/2016", "death": "Kesici Alet", "name": "F.A.", "reason": "Nefret Cinayeti", "req": "Yok", "source": "https://zete.com/tekirdagda-trans-cinayeti/", "type": "boundary", "who": "Tan\u0131d\u0131\u011f\u0131 Birisi", "year": 2016}, "type": "Feature"}, {"geometry": {"coordinates": [27.26006, 37.75633], "type": "Point"}, "properties": {"city": "Ku\u015fadas\u0131", "date": "22/03/2016", "death": "Ate\u015fli Silah", "name": "Aynur G\u00f6khan", "reason": "Tespit Edilemeyen", "req": "Yok", "source": "http://www.haberturk.com/gundem/haber/1213600-aydinda-cinnet-getiren-emekli-albay-karisini-oldurup-intihar-etti", "type": "boundary", "who": "Kocas\u0131", "year": 2016}, "type": "Feature"}, {"geometry": {"coordinates": [28.94768, 41.031681], "type": "Point"}, "properties": {"city": "\u0130stanbul", "date": "21/03/2016", "death": "Yanma", "name": "Latife \u00c7etinkaya", "reason": "Torununun sevgilisinin ayr\u0131lmay\u0131 kabul edememesi", "req": "Yok", "source": "http://www.gazetevatan.com/yangindan-yasak-ask-cinayeti-cikti--927572-yasam/", "type": "boundary", "who": "Tan\u0131mad\u0131\u011f\u0131 Birisi", "year": 2016}, "type": "Feature"}, {"geometry": {"coordinates": [29.012745, 41.087737], "type": "Point"}, "properties": {"city": "\u0130stanbul", "date": "24/03/2016", "death": "Ate\u015fli Silah", "name": "Aynur Kambur", "reason": "Tespit Edilemeyen", "req": "Yok", "source": "http://www.haberler.com/mezdeke-ekibi-uyesi-kadin-silahli-saldirida-8293914-haberi/", "type": "boundary", "who": "Tespit Edilemeyen", "year": 2016}, "type": "Feature"}, {"geometry": {"coordinates": [41.288261, 39.94568], "type": "Point"}, "properties": {"city": "Erzurum", "date": "28/03/2016", "death": "Kesici Alet", "name": "Neslihan K\u0131z\u0131lkaya", "reason": "Ayr\u0131lma Talebi", "req": "Yok", "source": "http://www.haber61.net/sokak-ortasinda-karisini-oldurdu-erzurum-haber-261591h.htm", "type": "boundary", "who": "Kocas\u0131", "year": 2016}, "type": "Feature"}, {"geometry": {"coordinates": [27.411374, 38.626934], "type": "Point"}, "properties": {"city": "Manisa", "date": "29/03/2016", "death": "Ate\u015fli Silah", "name": "Ay\u015fe\u011f\u00fcl \u015e.", "reason": "Tespit Edilemeyen", "req": "Yok", "source": "http://www.haberler.com/karisini-av-tufegiyle-gogsunden-vurarak-oldurdu-8304798-haberi/", "type": "boundary", "who": "Kocas\u0131", "year": 2016}, "type": "Feature"}, {"geometry": {"coordinates": [28.961694, 41.0507], "type": "Point"}, "properties": {"city": "\u0130stanbul", "date": "29/03/2016", "death": "Darp", "name": "Elena Carnelia", "reason": "Tespit Edilemeyen", "req": "Yok", "source": "http://www.milliyet.com.tr/beyoglu-nda-bir-kadin-dovulerek-gundem-2217970/", "type": "boundary", "who": "Tan\u0131mad\u0131\u011f\u0131 Birisi", "year": 2016}, "type": "Feature"}, {"geometry": {"coordinates": [39.212747, 38.690853], "type": "Point"}, "properties": {"city": "Elaz\u0131\u011f", "date": "29/03/2016", "death": "Kesici Alet", "name": "Afet \u00c7a\u011flayan", "reason": "Tespit Edilemeyen", "req": "Yok", "source": "http://www.milliyet.com.tr/emekli-kadin-ogretmen-evinde-olduruldu-elazig-yerelhaber-1291667/", "type": "boundary", "who": "Tespit Edilemeyen", "year": 2016}, "type": "Feature"}, {"geometry": {"coordinates": [38.762247, 37.182716], "type": "Point"}, "properties": {"city": "\u015eanl\u0131urfa", "date": "30/03/2016", "death": "Darp, Bo\u011fma", "name": "Sibel \u00c7.", "reason": "Tart\u0131\u015fma", "req": "Yok", "source": "http://www.haberyanki.com/gundem-haberleri/sanliurfada-vahset-servis-soforu-sevgilisini-bogarak-oldurdu-12-yasindaki-kiz-tum-olaya-sahit-oldu-h4302.html", "type": "boundary", "who": "Sevgilisi", "year": 2016}, "type": "Feature"}, {"geometry": {"coordinates": [32.494737, 37.875895], "type": "Point"}, "properties": {"city": "Konya", "date": "31/03/2016", "death": "Kesici Alet", "name": "Elveda Battal", "reason": "Tespit Edilemeyen", "req": "Yok", "source": "http://www.gercekgundem.com/guncel/199636/3-cocuk-annesi-kadin-olduruldu", "type": "boundary", "who": "Tespit Edilemeyen", "year": 2016}, "type": "Feature"}, {"geometry": {"coordinates": [28.94768, 41.071721], "type": "Point"}, "properties": {"city": "\u0130stanbul", "date": "30/04/2016", "death": "Darp", "name": "Nuborakhon Usmanova", "reason": "Tart\u0131\u015fma", "req": "Yok", "source": "", "type": "boundary", "who": "Sevgilisi", "year": 2016}, "type": "Feature"}, {"geometry": {"coordinates": [44.081631, 39.947318], "type": "Point"}, "properties": {"city": "I\u011fd\u0131r", "date": "08/05/2016", "death": "Ate\u015fli Silah", "name": "G\u00fcner G\u00fcnal", "reason": "Tart\u0131\u015fma", "req": "Yok", "source": "http://www.milliyet.com.tr/anneler-gunu-nde-katledildi-gundem-2241742/", "type": "boundary", "who": "Kocas\u0131", "year": 2016}, "type": "Feature"}, {"geometry": {"coordinates": [30.710241, 36.895977], "type": "Point"}, "properties": {"city": "Antalya", "date": "14/05/2016", "death": "Kesici Alet", "name": "G\u00fclten K.", "reason": "Tespit Edilemeyen", "req": "Yok", "source": "http://www.milliyet.com.tr/dehset-sacan-sizofren-cezaevi-gundem-2249375/", "type": "boundary", "who": "Akrabas\u0131", "year": 2016}, "type": "Feature"}, {"geometry": {"coordinates": [27.934248, 39.629414], "type": "Point"}, "properties": {"city": "Bal\u0131kesir", "date": "29/05/2016", "death": "Kesici Alet", "name": "Esra G\u00f6vem", "reason": "Tart\u0131\u015fma", "req": "Var", "source": "http://t24.com.tr/haber/koruma-altindaki-kadin-bosandigi-esi-tarafindan-olduruldu,342670", "type": "boundary", "who": "Eski Kocas\u0131", "year": 2016}, "type": "Feature"}, {"geometry": {"coordinates": [27.455418, 38.630938], "type": "Point"}, "properties": {"city": "Manisa", "date": "17/06/2016", "death": "Kesici Alet", "name": "Cansel Ba\u011fl\u0131", "reason": "Tespit Edilemeyen", "req": "Yok", "source": "http://www.milliyet.com.tr/cansel-cinayetinde-soke-eden-itiraf-gundem-2269862/http://www.milliyet.com.tr/cansel-i-oldurup-cesedini-3-gun-gundem-2265330/", "type": "boundary", "who": "Karde\u015fi, Babas\u0131", "year": 2016}, "type": "Feature"}, {"geometry": {"coordinates": [29.983604, 40.812457], "type": "Point"}, "properties": {"city": "Kocaeli", "date": "28/06/2016", "death": "Ate\u015fli Silah", "name": "Asiye \u00d6zbay", "reason": "Tart\u0131\u015fma", "req": "Yok", "source": "http://www.milliyet.com.tr/cocuklar-icin-baristi-olumden-gundem-2269711/", "type": "boundary", "who": "Kocas\u0131", "year": 2016}, "type": "Feature"}, {"geometry": {"coordinates": [35.373008, 36.95563], "type": "Point"}, "properties": {"city": "Adana", "date": "26/06/2016", "death": "Ate\u015fli Silah", "name": "Sema Y\u0131ld\u0131r\u0131m", "reason": "Tespit Edilemeyen", "req": "Yok", "source": "http://www.milliyet.com.tr/yasak-ask-vahseti-gundem-2268677/", "type": "boundary", "who": "Eski Sevgilisi", "year": 2016}, "type": "Feature"}, {"geometry": {"coordinates": [29.292542, 40.654978], "type": "Point"}, "properties": {"city": "Yalova", "date": "26/06/2016", "death": "Bo\u011fma", "name": "Gizem Ekici", "reason": "Tecav\u00fcz", "req": "Yok", "source": "http://www.milliyet.com.tr/-babama-soyleyecegim-deyince-gundem-2268676/", "type": "boundary", "who": "Akrabas\u0131", "year": 2016}, "type": "Feature"}, {"geometry": {"coordinates": [37.34513, 37.023481], "type": "Point"}, "properties": {"city": "Gaziantep", "date": "25/06/2016", "death": "Kesici Alet", "name": "Selma G\u00fcng\u00f6r", "reason": "Tart\u0131\u015fma", "req": "Yok", "source": "http://www.milliyet.com.tr/baldiz-katili-suphelisini-lincten-gundem-2268531/", "type": "boundary", "who": "Akrabas\u0131", "year": 2016}, "type": "Feature"}, {"geometry": {"coordinates": [29.953574, 40.726371], "type": "Point"}, "properties": {"city": "Kocaeli", "date": "23/06/2016", "death": "Ate\u015fli Silah", "name": "Bahar Akba\u015f", "reason": "Bo\u015fanma Talebi", "req": "Yok", "source": "http://www.milliyet.com.tr/bosanmak-isteyen-esi-ve-gundem-2267607/", "type": "boundary", "who": "Kocas\u0131", "year": 2016}, "type": "Feature"}, {"geometry": {"coordinates": [29.12422, 36.62697], "type": "Point"}, "properties": {"city": "Fethiye", "date": "23/06/2016", "death": "Ate\u015fli Silah", "name": "Nezahat Durmaz", "reason": "Tespit Edilemeyen", "req": "Yok", "source": "http://www.milliyet.com.tr/hamile-esini-oldurdu-gundem-2267105/", "type": "boundary", "who": "Kocas\u0131", "year": 2016}, "type": "Feature"}, {"geometry": {"coordinates": [32.815892, 39.888057], "type": "Point"}, "properties": {"city": "Ankara", "date": "22/06/2016", "death": "Ate\u015fli Silah", "name": "Fettaha A.", "reason": "Tart\u0131\u015fma", "req": "Yok", "source": "http://www.milliyet.com.tr/suriyeli-kadin-cocuklarinin-gozu-gundem-2266976/", "type": "boundary", "who": "Kocas\u0131", "year": 2016}, "type": "Feature"}, {"geometry": {"coordinates": [30.704235, 36.834916], "type": "Point"}, "properties": {"city": "Antalya", "date": "21/06/2016", "death": "Kesici Alet", "name": "Seda Erol", "reason": "Tart\u0131\u015fma", "req": "Yok", "source": "http://www.milliyet.com.tr/once-esini-sonra-kendisini-oldurdu-gundem-2265826/", "type": "boundary", "who": "Kocas\u0131", "year": 2016}, "type": "Feature"}, {"geometry": {"coordinates": [37.418203, 37.055513], "type": "Point"}, "properties": {"city": "Gaziantep", "date": "20/06/2016", "death": "Bo\u011fma", "name": "\u00d6zlem G\u00fclyaprak", "reason": "Reddedilme", "req": "Yok", "source": "http://www.milliyet.com.tr/barismayan-kadini-bogarak-oldurdu-gundem-2265223/", "type": "boundary", "who": "Eski Sevgilisi", "year": 2016}, "type": "Feature"}, {"geometry": {"coordinates": [40.685288, 37.353998], "type": "Point"}, "properties": {"city": "Mardin", "date": "19/07/2016", "death": "Ate\u015fli Silah", "name": "Nadire Akba\u015f", "reason": "Tespit Edilemeyen", "req": "Yok", "source": "http://www.milliyet.com.tr/tartistigi-esinin-ailesini-oldurdu--gundem-2280014/", "type": "boundary", "who": "Akrabas\u0131", "year": 2016}, "type": "Feature"}, {"geometry": {"coordinates": [40.674277, 37.346991], "type": "Point"}, "properties": {"city": "Mardin", "date": "20/07/2016", "death": "Ate\u015fli Silah", "name": "\u015eehriban", "reason": "K\u0131z\u0131n\u0131\u00a0Korurken", "req": "Yok ", "source": "http://www.milliyet.com.tr/tartistigi-esinin-ailesini-oldurdu--gundem-2280014/", "type": "boundary", "who": "Damad\u0131", "year": 2016}, "type": "Feature"}, {"geometry": {"coordinates": [37.39518, 37.038496], "type": "Point"}, "properties": {"city": "Gaziantep", "date": "15/07/2016", "death": "Kesici Alet", "name": "Fatma A\u011fg\u00fcl", "reason": "Tespit Edilemeyen", "req": "Yok", "source": "http://www.milliyet.com.tr/genc-kadin-evinde-bicaklanarak-gundem-2278636/", "type": "boundary", "who": "Tespit Edilemeyen", "year": 2016}, "type": "Feature"}, {"geometry": {"coordinates": [33.224701, 37.208728], "type": "Point"}, "properties": {"city": "Karaman", "date": "14/07/2016", "death": "Darp", "name": "Anak\u0131z Dorum", "reason": "Namus", "req": "Yok", "source": "http://www.milliyet.com.tr/erkek-siddeti-2-can-daha-aldi-gundem-2277543/http://www.milliyet.com.tr/esi-tarafindan-dovulen-kadin-gundem-2277202/", "type": "boundary", "who": "Kocas\u0131", "year": 2016}, "type": "Feature"}, {"geometry": {"coordinates": [33.525513, 39.803543], "type": "Point"}, "properties": {"city": "K\u0131r\u0131kkale", "date": "14/07/2016", "death": "Ate\u015fli Silah", "name": "Medine \u00d6zata", "reason": "Tart\u0131\u015fma", "req": "Yok", "source": "http://www.milliyet.com.tr/erkek-siddeti-2-can-daha-aldi-gundem-2277543/", "type": "boundary", "who": "Kocas\u0131", "year": 2016}, "type": "Feature"}, {"geometry": {"coordinates": [40.181671, 37.930456], "type": "Point"}, "properties": {"city": "Diyarbak\u0131r", "date": "20/06/2016", "death": "Darp", "name": "Maide \u00c7etin", "reason": "Tespit Edilemeyen", "req": "Yok", "source": "http://www.milliyet.com.tr/kizimi-oldurduler-gundem-2276933/", "type": "boundary", "who": "Tespit Edilemeyen", "year": 2016}, "type": "Feature"}, {"geometry": {"coordinates": [30.692223, 36.900982], "type": "Point"}, "properties": {"city": "Antalya", "date": "12/07/2016", "death": "Ate\u015fli Silah", "name": "\u015e\u00fckran G\u00fcl\u00e7elik", "reason": "Tespit Edilemeyen", "req": "Yok", "source": "http://www.milliyet.com.tr/kayinvalidesi-ve-baldizini-olduren-gundem-2276850/", "type": "boundary", "who": "Damad\u0131", "year": 2016}, "type": "Feature"}, {"geometry": {"coordinates": [28.333851, 37.224639], "type": "Point"}, "properties": {"city": "Mu\u011fla", "date": "08/08/2016", "death": "Darp", "name": "Gizem G\u00fcnay", "reason": "Tart\u0131\u015fma", "req": "Yok", "source": "http://www.milliyet.com.tr/kocasi-doverek-oldurdu-gundem-2291163/", "type": "boundary", "who": "Kocas\u0131", "year": 2016}, "type": "Feature"}, {"geometry": {"coordinates": [27.178907, 38.458222], "type": "Point"}, "properties": {"city": "\u0130zmir", "date": "12/07/2016", "death": "Yanma", "name": "Sibel \u00c7elik", "reason": "Tespit Edilemeyen", "req": "Yok", "source": "http://www.milliyet.com.tr/yangindaki-vahsetten-dram-cikti-gundem-2290530/", "type": "boundary", "who": "Tespit Edilemeyen", "year": 2016}, "type": "Feature"}, {"geometry": {"coordinates": [30.522726, 39.829717], "type": "Point"}, "properties": {"city": "Eski\u015fehir", "date": "05/08/2016", "death": "Darp, Bo\u011fma", "name": "Kader Kaya", "reason": "Tecav\u00fcz\u00fc Reddetme", "req": "Yok", "source": "http://www.milliyet.com.tr/tecavuz-edemeyince-oldurmus-gundem-2289757/", "type": "boundary", "who": "Tan\u0131mad\u0131\u011f\u0131 birisi", "year": 2016}, "type": "Feature"}, {"geometry": {"coordinates": [27.095824, 38.442206], "type": "Point"}, "properties": {"city": "\u0130zmir", "date": "05/08/2016", "death": "Ate\u015fli Silah", "name": "Duru \u00d6glem", "reason": "Kaza", "req": "Yok", "source": "http://www.milliyet.com.tr/balkonda-uyurken-basindan-vuruldu-gundem-2289748/", "type": "boundary", "who": "Akrabas\u0131", "year": 2016}, "type": "Feature"}, {"geometry": {"coordinates": [32.555798, 37.914934], "type": "Point"}, "properties": {"city": "Konya", "date": "05/08/2016", "death": "Ate\u015fli Silah", "name": "Neslihan Kaymaz", "reason": "Tespit Edilemeyen", "req": "Yok", "source": "http://www.milliyet.com.tr/cinnet-getiren-polis-ailesini-gundem-2289725/", "type": "boundary", "who": "Kocas\u0131", "year": 2016}, "type": "Feature"}, {"geometry": {"coordinates": [41.095878, 37.894912], "type": "Point"}, "properties": {"city": "Batman", "date": "31/07/2016", "death": "Darp, Elektrik Verme", "name": "Emine/Amine  Demirta\u015f", "reason": "Arkada\u015flar\u0131yla Mesajla\u015fma", "req": "Yok", "source": "http://www.milliyet.com.tr/kiz-kardesini-elektrikle-oldurdu-gundem-2289152/", "type": "boundary", "who": "Abisi, Babas\u0131", "year": 2016}, "type": "Feature"}, {"geometry": {"coordinates": [31.188207, 40.878867], "type": "Point"}, "properties": {"city": "D\u00fczce", "date": "03/08/2016", "death": "Ate\u015fli Silah", "name": "Esma \u015eenek", "reason": "Mal payla\u015f\u0131m\u0131", "req": "Yok", "source": "http://www.milliyet.com.tr/findik-bahcesinde-annesi-ve-gundem-2288872/", "type": "boundary", "who": "O\u011flu", "year": 2016}, "type": "Feature"}, {"geometry": {"coordinates": [31.140159, 40.842831], "type": "Point"}, "properties": {"city": "D\u00fczce", "date": "03/08/2016", "death": "Ate\u015fli Silah", "name": "Hanife \u015eener", "reason": "Mal Payla\u015f\u0131m\u0131", "req": "Yok", "source": "http://www.milliyet.com.tr/findik-bahcesinde-annesi-ve-gundem-2288872/", "type": "boundary", "who": "Erkek Karde\u015fi", "year": 2016}, "type": "Feature"}, {"geometry": {"coordinates": [36.328331, 41.319078], "type": "Point"}, "properties": {"city": "Samsun", "date": "01/05/2016", "death": "Ate\u015fli Silah", "name": "Zekiye Keskin", "reason": "Tespit Edilemeyen", "req": "Yok", "source": "http://www.milliyet.com.tr/3-ay-once-kaybolan-15-yasindaki-gundem-2292564/http://www.milliyet.com.tr/cesedi-parcalanmis-halde-bulundu--gundem-galeri-2824540/", "type": "boundary", "who": "Tespit Edilemeyen", "year": 2016}, "type": "Feature"}, {"geometry": {"coordinates": [27.179908, 38.447211], "type": "Point"}, "properties": {"city": "\u0130zmir", "date": "27/07/2016", "death": "Kesici Alet", "name": "\u0130lknur Parlayan", "reason": "Tart\u0131\u015fma", "req": "Yok", "source": "http://www.objektifhaber.com/sevgilisini-oldurdu-intihar-etti-339440-haber/", "type": "boundary", "who": "Sevgilisi", "year": 2016}, "type": "Feature"}, {"geometry": {"coordinates": [34.842715, 39.773941], "type": "Point"}, "properties": {"city": "Yozgat", "date": "26/07/2016", "death": "Ate\u015fli Silah", "name": "Nurdane A.", "reason": "Tespit Edilemeyen", "req": "Yok", "source": "http://haber.star.com.tr/yasam/sizofren-dehseti-annesini-ve-babasini-oldurdu/haber-1128743", "type": "boundary", "who": "O\u011flu", "year": 2016}, "type": "Feature"}, {"geometry": {"coordinates": [29.020612, 40.213399], "type": "Point"}, "properties": {"city": "Bursa", "date": "26/07/2016", "death": "Kesici Alet", "name": "Nurcan Efe", "reason": "Reddedilme", "req": "Yok", "source": "http://www.hurriyet.com.tr/yerel-haberler/bursa-haberleri/kadin-arkadasini-sokakta-oldurdu-taburcu-oldug_314861/", "type": "boundary", "who": "Eski Sevgilisi", "year": 2016}, "type": "Feature"}, {"geometry": {"coordinates": [43.38034, 38.50036], "type": "Point"}, "properties": {"city": "Van", "date": "23/07/2016", "death": "Ate\u015fli Silah", "name": "Berivan Bayram", "reason": "Tespit Edilemeyen", "req": "Yok", "source": "http://www.wanhaber.com/baskalede-koca-dehseti-bir-kadin-olduruldu-209961h.htmhttp://jiyan.news/2016/07/23/vanda-kadin-cinayeti-berivan-bayram-kocasi-tarafindan-katledildi/", "type": "boundary", "who": "Kocas\u0131", "year": 2016}, "type": "Feature"}, {"geometry": {"coordinates": [27.901215, 39.650435], "type": "Point"}, "properties": {"city": "Bal\u0131kesir", "date": "18/07/2016", "death": "Kesici Alet", "name": "Hanife Akman", "reason": "Tespit Edilemeyen", "req": "Yok", "source": "http://www.sondakika.com/haber/haber-ayvalik-ablasini-uykuda-bicakladi-8620487/", "type": "boundary", "who": "Erkek Karde\u015fi", "year": 2016}, "type": "Feature"}, {"geometry": {"coordinates": [27.135864, 38.455219], "type": "Point"}, "properties": {"city": "\u0130zmir", "date": "12/07/2016", "death": "Kesici Alet", "name": "Funda \u00d6zdemir", "reason": "Tespit Edilemeyen", "req": "Yok", "source": "http://www.bursahakimiyet.com.tr/asayis/vahset-genc-kadini-oldurduler-sonra-da-144826.html", "type": "boundary", "who": "Ni\u015fanl\u0131s\u0131", "year": 2016}, "type": "Feature"}, {"geometry": {"coordinates": [35.458485, 38.763963], "type": "Point"}, "properties": {"city": "Kayseri", "date": "11/07/2016", "death": "Kesici Alet", "name": "Arzu N.", "reason": "Tart\u0131\u015fma", "req": "Yok", "source": "http://www.habertam.com/guncel/esini-oldurup-intihar-etti-3-168210", "type": "boundary", "who": "Kocas\u0131", "year": 2016}, "type": "Feature"}, {"geometry": {"coordinates": [35.275911, 36.992667], "type": "Point"}, "properties": {"city": "Adana", "date": "09/07/2016", "death": "Kesici Alet", "name": "Menel \u0130smail", "reason": "Tart\u0131\u015fma", "req": "Yok", "source": "http://www.haberler.com/suriyeli-kadin-bicaklanarak-olduruldu-8594604-haberi/", "type": "boundary", "who": "Kocas\u0131", "year": 2016}, "type": "Feature"}, {"geometry": {"coordinates": [34.680196, 36.818899], "type": "Point"}, "properties": {"city": "Mersin", "date": "08/07/2016", "death": "Bo\u011fma, Kesici Alet", "name": "Fatma \u015eeng\u00fcl", "reason": "Tespit Edilemeyen", "req": "Yok", "source": "http://www.5kitahaber.com/turkiye/mersin-de-kadin-cinayeti-elleriyle-bogduktan-sonra-bicakladi-h75486.html", "type": "boundary", "who": "Kocas\u0131", "year": 2016}, "type": "Feature"}, {"geometry": {"coordinates": [29.094896, 37.788193], "type": "Point"}, "properties": {"city": "Denizli", "date": "02/08/2016", "death": "Ate\u015fli Silah", "name": "\u0130simsiz", "reason": "Tespit Edilemeyen", "req": "Yok", "source": "https://www.medyaege.com.tr/denizlide-4-cocuk-annesi-kadina-tutun-tarlasinda-3-kursun-18947h.htm", "type": "boundary", "who": "Tespit Edilemeyen", "year": 2016}, "type": "Feature"}, {"geometry": {"coordinates": [40.162652, 37.896422], "type": "Point"}, "properties": {"city": "Diyarbak\u0131r", "date": "04/08/2016", "death": "Ate\u015fli Silah", "name": "H\u00fcsna Kastarl\u0131", "reason": "Tart\u0131\u015fma", "req": "Yok", "source": "http://www.haberx.com/uyusturucu_tacirlerine_tepki_gosteren_kadin_olduruldu(17,n,12319574,829).aspx", "type": "boundary", "who": "Tan\u0131mad\u0131\u011f\u0131 Birileri", "year": 2016}, "type": "Feature"}, {"geometry": {"coordinates": [29.093895, 37.744149], "type": "Point"}, "properties": {"city": "Denizli ", "date": "06/09/2016", "death": "Bilinmiyor", "name": "Hatice \u00c7imentepe", "reason": "Tespit Edilemeyen", "req": "Yok", "source": "http://www.memleket.com.tr/koyun-otlatmak-icin-gittigi-arazide-cesedi-bulundu-940116h.htm", "type": "boundary", "who": "Tespit Edilemeyen", "year": 2016}, "type": "Feature"}, {"geometry": {"coordinates": [32.482725, 37.907927], "type": "Point"}, "properties": {"city": "Konya", "date": "09/08/2016", "death": "Kesici Alet", "name": "Menek\u015fe K.", "reason": "Tespit Edilemeyen", "req": "Yok", "source": "http://www.haberturk.com/yerel-haberler/haber/9147317-bogazi-kesilen-84-yasindaki-kadin-dere-yatagina-atildi", "type": "boundary", "who": "Tespit Edilemeyen", "year": 2016}, "type": "Feature"}, {"geometry": {"coordinates": [29.023756, 41.03068], "type": "Point"}, "properties": {"city": "\u0130stanbul", "date": "10/08/2016", "death": "Bo\u011fulma", "name": "Sevim \u00c7ak\u0131r", "reason": "Tespit Edilemeyen", "req": "Yok", "source": "http://www.dogurehberi.com/asayis/kayip-kadinin-cesedi-denizde-bulundu-h1231836.html", "type": "boundary", "who": "Tespit Edilemeyen", "year": 2016}, "type": "Feature"}, {"geometry": {"coordinates": [27.381344, 38.590898], "type": "Point"}, "properties": {"city": "Manisa", "date": "11/08/2016", "death": "Kesici Alet", "name": "Meltem Ece", "reason": "Tespit Edilemeyen", "req": "Yok", "source": "http://beyazgazete.com/video/webtv/3-sayfa-15/iki-cocugunun-annesini-sokak-ortasinda-bicaklayarak-oldurdu-451193.html", "type": "boundary", "who": "Kocas\u0131", "year": 2016}, "type": "Feature"}, {"geometry": {"coordinates": [32.526769, 37.866886], "type": "Point"}, "properties": {"city": "Konya", "date": "12/08/2016", "death": "Ate\u015fli Silah", "name": "Fatma A.", "reason": "Tart\u0131\u015fma, Reddedilme", "req": "Var, evden uzak durma", "source": "http://www.marmaragazetesi.com/damat-dehseti-konusmaya-gitti-karisini-ve-kayinpederini-katletti-94970h.htm", "type": "boundary", "who": "Kocas\u0131", "year": 2016}, "type": "Feature"}, {"geometry": {"coordinates": [32.556799, 37.845865], "type": "Point"}, "properties": {"city": "Konya", "date": "13/08/2016", "death": "Ate\u015fli Silah", "name": "\u015eeyda Bak", "reason": "Ge\u00e7imsizlik, Tart\u0131\u015fma", "req": "Yok", "source": "http://www.yenicaggazetesi.com.tr/konyada-baba-cinneti-144004h.htm", "type": "boundary", "who": "Babas\u0131", "year": 2016}, "type": "Feature"}, {"geometry": {"coordinates": [27.391354, 38.647955], "type": "Point"}, "properties": {"city": "Manisa", "date": "15/08/2016", "death": "Ate\u015fli Silah", "name": "Ne\u015fadiye G\u00f6kmen", "reason": "Tespit Edilemeyen", "req": "Yok", "source": "http://www.milliyet.com.tr/turgutlu-da-kadin-cinayeti-manisa-yerelhaber-1514674/", "type": "boundary", "who": "Kocas\u0131", "year": 2016}, "type": "Feature"}, {"geometry": {"coordinates": [42.10819, 38.3992], "type": "Point"}, "properties": {"city": "Bitlis", "date": "17/08/2016", "death": "Kesici Alet", "name": "K.\u00c7.", "reason": "Tespit Edilemeyen", "req": "Yok", "source": "http://www.sondakika.com/haber/haber-tatvan-da-vahsi-cinayet-8703862/", "type": "boundary", "who": "Kocas\u0131", "year": 2016}, "type": "Feature"}, {"geometry": {"coordinates": [39.673948, 40.997521], "type": "Point"}, "properties": {"city": "Trabzon", "date": "17/08/2016", "death": "Kesici Alet", "name": "G\u00fclhan\u0131m Ekber", "reason": "Tart\u0131\u015fma", "req": "Yok", "source": "http://www.34volt.com/azeri-uyruklu-kadin-kardesi-tarafindan-bicaklanarak-olduruldu-haberi-422512/", "type": "boundary", "who": "Abisi", "year": 2016}, "type": "Feature"}, {"geometry": {"coordinates": [35.335971, 36.994669], "type": "Point"}, "properties": {"city": "Adana", "date": "17/08/2016", "death": "Kesici Alet", "name": "G\u00fclten G\u00fclp\u0131nar", "reason": "Tespit Edilemeyen", "req": "Yok", "source": "http://www.hurriyet.com.tr/parkta-erkek-ve-kadin-cesedi-bulundu-40197782", "type": "boundary", "who": "Tespit Edilemeyen", "year": 2016}, "type": "Feature"}, {"geometry": {"coordinates": [34.975874, 40.555255], "type": "Point"}, "properties": {"city": "\u00c7orum", "date": "18/08/2016", "death": "Kesici Alet", "name": "Naime \u00d6ztemurcu", "reason": "Tart\u0131\u015fma", "req": "Yok", "source": "http://www.star.com.tr/guncel/corumda-kadin-cinayeti-kayinvalidesini-bicaklayarak-oldurdu-haber-1135012/", "type": "boundary", "who": "Damad\u0131", "year": 2016}, "type": "Feature"}, {"geometry": {"coordinates": [27.474437, 38.570878], "type": "Point"}, "properties": {"city": "Manisa", "date": "19/08/2016", "death": "Kesici Alet", "name": "Zehra K.", "reason": "Bo\u015fanma Talebi", "req": "Yok", "source": "http://www.habergazetesi.com.tr/haber/204272/koca-vahseti-esini-ve-kayinvalidesini-agir-yaraladi", "type": "boundary", "who": "Kocas\u0131", "year": 2016}, "type": "Feature"}, {"geometry": {"coordinates": [30.755286, 36.896978], "type": "Point"}, "properties": {"city": "Antalya", "date": "20/08/2016", "death": "Kesici Alet", "name": "Muazzez T\u00fcrky\u0131lmaz", "reason": "Tart\u0131\u015fma", "req": "Yok", "source": "http://www.sozcu.com.tr/2016/gundem/bosandigi-esini-6-yerinden-bicaklayarak-oldurdu-1358483/", "type": "boundary", "who": "Eski Kocas\u0131", "year": 2016}, "type": "Feature"}, {"geometry": {"coordinates": [33.216693, 37.141661], "type": "Point"}, "properties": {"city": "Karaman", "date": "26/08/2016", "death": "Ate\u015fli Silah", "name": "Nazife Ersoy", "reason": "Bo\u015fanma Talebi", "req": "Yok", "source": "http://www.birgun.net/haber-detay/bir-kadin-daha-bosanmak-istedigi-kocasi-tarafindan-olduruldu-125703.html", "type": "boundary", "who": "Kocas\u0131", "year": 2016}, "type": "Feature"}, {"geometry": {"coordinates": [37.352137, 37.037495], "type": "Point"}, "properties": {"city": "Gaziantep", "date": "20/08/2016", "death": "Kesici Alet", "name": "T\u00fcrkan K\u00f6se", "reason": "K\u0131z\u0131n\u0131 Korurken", "req": "Yok", "source": "http://www.sabah.com.tr/guney/2016/08/20/kaynanasini-oldurdu", "type": "boundary", "who": "Damad\u0131", "year": 2016}, "type": "Feature"}, {"geometry": {"coordinates": [37.40519, 37.048506], "type": "Point"}, "properties": {"city": "Gaziantep", "date": "19/09/2016", "death": "Kesici Alet, Ate\u015fli Silah", "name": "T\u00fcrkan Mavi", "reason": "Tespit Edilemeyen", "req": "Yok", "source": "http://www.cnnturk.com/turkiye/emekli-polis-memuru-4-cocuk-annesi-eski-esini-oldurdu", "type": "boundary", "who": "Eski Kocas\u0131", "year": 2016}, "type": "Feature"}, {"geometry": {"coordinates": [30.030103, 39.404854], "type": "Point"}, "properties": {"city": "K\u00fctahya", "date": "21/09/2016", "death": "Ate\u015fli Silah", "name": "Esma Kamal\u0131", "reason": "Tespit Edilemeyen", "req": "Yok", "source": "http://www.haberekspres.com.tr/ege/yine-kadin-cinayeti-bosandigi-esini-oldurdu-sonra-da-h94096.html", "type": "boundary", "who": "Eski Kocas\u0131", "year": 2016}, "type": "Feature"}, {"geometry": {"coordinates": [30.708239, 36.920001], "type": "Point"}, "properties": {"city": "Antalya", "date": "27/09/2016", "death": "Ate\u015fli Silah", "name": "Kadriye Polat", "reason": "K\u0131z \u0130steme", "req": "Yok", "source": "http://www.haberturk.com/gundem/haber/1302267-antalyada-silahli-saldirida-kadriye-polat-oldu-anne-ve-babasi-agir-yarali", "type": "boundary", "who": "Tan\u0131d\u0131\u011f\u0131 Birileri", "year": 2016}, "type": "Feature"}, {"geometry": {"coordinates": [31.42171, 41.28025], "type": "Point"}, "properties": {"city": "Ere\u011fli", "date": "27/09/2016", "death": "Ate\u015fli Silah", "name": "Leyla Demirta\u015f", "reason": "Tart\u0131\u015fma", "req": "Yok", "source": "http://www.globalekonomi.com.tr/haberler/haber/26379/sakarya_da_silahli_kavga_1_kadin_oldu_1_kadin_yarali.html", "type": "boundary", "who": "Tan\u0131d\u0131\u011f\u0131 Birisi", "year": 2016}, "type": "Feature"}, {"geometry": {"coordinates": [38.822307, 37.13667], "type": "Point"}, "properties": {"city": "\u015eanl\u0131urfa", "date": "12/10/2016", "death": "Kesici Alet", "name": "Zeynep Aksoylar", "reason": "Tespit Edilemeyen", "req": "Yok", "source": "http://www.milliyet.com.tr/10-gunluk-gelin-olu-bulundu-gundem-2325659/http://www.milliyet.com.tr/10-gunluk-gelinin-olumuyle-ilgili-gundem-2328473/", "type": "boundary", "who": "Babas\u0131 ve Erkek Karde\u015fi", "year": 2016}, "type": "Feature"}, {"geometry": {"coordinates": [36.562892, 40.348985], "type": "Point"}, "properties": {"city": "Tokat", "date": "14/10/2016", "death": "Ate\u015fli Silah", "name": "Arife \u00c7olak", "reason": "Kendi Hayat\u0131na Dair Karar Almak \u0130stedi\u011fi \u0130\u00e7in ", "req": "Yok", "source": "http://www.milliyet.com.tr/bosanmak-isteyen-3-aylik-esini-gundem-2326946/", "type": "boundary", "who": "Kocas\u0131", "year": 2016}, "type": "Feature"}, {"geometry": {"coordinates": [35.532559, 38.696896], "type": "Point"}, "properties": {"city": "Kayseri", "date": "17/10/2016", "death": "Kesici Alet", "name": "Sultan T.", "reason": "Tart\u0131\u015fma", "req": "Yok", "source": "http://www.milliyet.com.tr/85-yasindaki-kadin-torunlari-gundem-2328917/", "type": "boundary", "who": "Torunlar\u0131", "year": 2016}, "type": "Feature"}, {"geometry": {"coordinates": [36.931103, 37.57581], "type": "Point"}, "properties": {"city": "Kahramanmara\u015f", "date": "17/10/2016", "death": "Ate\u015fli Silah", "name": "D.\u00d6.", "reason": "Tart\u0131\u015fma", "req": "Yok", "source": "http://www.milliyet.com.tr/kardes-kavgasi-kanli-bitti-gundem-2328437/", "type": "boundary", "who": "Abisi", "year": 2016}, "type": "Feature"}, {"geometry": {"coordinates": [30.746277, 36.920001], "type": "Point"}, "properties": {"city": "Antalya", "date": "02/07/2016", "death": "Ate\u015fli Silah", "name": "\u00d6zlem Sar\u0131kurtbay", "reason": "Tart\u0131\u015fma", "req": "Yok", "source": "http://www.anahaberim.com/haber/2244/antalya-kepezde-kadin-cinayeti.html", "type": "boundary", "who": "Kocas\u0131", "year": 2016}, "type": "Feature"}, {"geometry": {"coordinates": [29.64409, 36.19935], "type": "Point"}, "properties": {"city": "Ka\u015f", "date": "25/10/2016", "death": "Kesici Alet", "name": "Fulya \u00d6zdemir", "reason": "Tespit Edilemeyen", "req": "Yok", "source": "http://www.hurriyet.com.tr/kayip-olarak-aranan-fulyadan-korkunc-haber-40258213", "type": "boundary", "who": "Tan\u0131d\u0131\u011f\u0131 Birisi, Arkada\u015f\u0131", "year": 2016}, "type": "Feature"}, {"geometry": {"coordinates": [37.836928, 40.937652], "type": "Point"}, "properties": {"city": "Ordu", "date": "27/10/2016", "death": "Ate\u015fli Silah", "name": "Raciye G.", "reason": "Bo\u015fanma Talebi", "req": "Yok", "source": "http://www.milliyet.com.tr/damat-kayinvalidesini-oldurdu-gundem-2334942/", "type": "boundary", "who": "Damad\u0131", "year": 2016}, "type": "Feature"}, {"geometry": {"coordinates": [30.53819, 38.75795], "type": "Point"}, "properties": {"city": "Afyonkarahisar", "date": "03/11/2016", "death": "Darp", "name": "Sat\u0131 Kan", "reason": "H\u0131rs\u0131zl\u0131k", "req": "Yok", "source": "http://www.milliyet.com.tr/vahset-elleri-ve-ayaklari-gundem-2338865/", "type": "boundary", "who": "Tespit Edilemeyen", "year": 2016}, "type": "Feature"}, {"geometry": {"coordinates": [32.842919, 39.947116], "type": "Point"}, "properties": {"city": "Ankara", "date": "24/06/2016", "death": "Ate\u015fli Silah", "name": "\u0130lknur Y\u00fcce", "reason": "Tart\u0131\u015fma, Husumet", "req": "Yok", "source": "http://www.hurriyet.com.tr/ankarada-universite-hastanesinde-dehset-4-eczaci-olduruldu-40121627", "type": "boundary", "who": "Tan\u0131d\u0131\u011f\u0131 Birisi", "year": 2016}, "type": "Feature"}, {"geometry": {"coordinates": [32.817894, 39.932101], "type": "Point"}, "properties": {"city": "Ankara", "date": "24/06/2016", "death": "Ate\u015fli Silah", "name": "G\u00fcrsu Ula\u015fan", "reason": "Tart\u0131\u015fma, Husumet", "req": "Yok", "source": "http://www.hurriyet.com.tr/ankarada-universite-hastanesinde-dehset-4-eczaci-olduruldu-40121627", "type": "boundary", "who": "Tan\u0131d\u0131\u011f\u0131 Birisi", "year": 2016}, "type": "Feature"}, {"geometry": {"coordinates": [37.376161, 37.070528], "type": "Point"}, "properties": {"city": "Gaziantep", "date": "02/11/2016", "death": "Y\u00fcksekten At\u0131larak", "name": "Hatice S\u00f6kmen", "reason": "Tart\u0131\u015fma", "req": "Yok", "source": "http://www.milliyet.com.tr/esi-tarafindan-7-kattan-atilan-gundem-2338121/", "type": "boundary", "who": "Kocas\u0131", "year": 2016}, "type": "Feature"}, {"geometry": {"coordinates": [27.379342, 38.608916], "type": "Point"}, "properties": {"city": "Manisa", "date": "02/11/2016", "death": "Tespit Edilemeyen", "name": "Bilinmiyor", "reason": "Tespit Edilemeyen", "req": "Bilinmiyor", "source": "http://www.milliyet.com.tr/vahseti-39-numarali-ayakkabi-gundem-2337913/", "type": "boundary", "who": "Tespit Edilemeyen", "year": 2016}, "type": "Feature"}, {"geometry": {"coordinates": [36.124686, 36.158325], "type": "Point"}, "properties": {"city": "Hatay", "date": "05/11/2016", "death": "Zehirlenerek", "name": "Havin Abir M.", "reason": "Tespit Edilemeyen", "req": "Yok", "source": "http://www.haberturk.com/gundem/haber/1319962-nikahsiz-esinin-oldurdugu-soylenen-anne-ve-kizi-zehirlenmis", "type": "boundary", "who": "Sevgilisi", "year": 2016}, "type": "Feature"}, {"geometry": {"coordinates": [37.49882, 41.02942], "type": "Point"}, "properties": {"city": "Fatsa", "date": "11/11/2016", "death": "Bo\u011fularak", "name": "Nurg\u00fcl \u00d6lmez", "reason": "Tespit Edilemeyen", "req": "Yok", "source": "http://www.orduolay.com/asayis/uvey-annesini-bogarak-oldurdu/12898", "type": "boundary", "who": "\u00dcvey O\u011flu", "year": 2016}, "type": "Feature"}, {"geometry": {"coordinates": [30.690221, 36.871953], "type": "Point"}, "properties": {"city": "Antalya", "date": "12/11/2016", "death": "Yanarak", "name": "Nursen \u015eeng\u00fcl", "reason": "Tespit Edilemeyen", "req": "Yok", "source": "http://www.diken.com.tr/antalyada-kadin-cinayeti-esinin-uzerine-benzin-dokup-yaktigi-kadin-hayatini-kaybetti/", "type": "boundary", "who": "Kocas\u0131", "year": 2016}, "type": "Feature"}, {"geometry": {"coordinates": [33.483471, 39.826566], "type": "Point"}, "properties": {"city": "K\u0131r\u0131kkale", "date": "21/11/2016", "death": "Kesici Alet, Bo\u011fma", "name": "Beyza T.", "reason": "Namus", "req": "Yok", "source": "http://www.mynet.com/haber/diger/vahset-kizini-once-8-yerinden-bicakladi-sonra-su-legeninde-bogarak-oldurdu-2739419-1", "type": "boundary", "who": "Babas\u0131", "year": 2016}, "type": "Feature"}, {"geometry": {"coordinates": [27.852166, 39.62541], "type": "Point"}, "properties": {"city": "Bal\u0131kesir", "date": "01/11/2016", "death": "Kesici Alet", "name": "Fatma Karabulut", "reason": "Tespit Edilemeyen", "req": "Yok", "source": "http://www.sondakika.com/haber/haber-trafik-polisi-esini-oldurdu-2-kucuk-kizi-ve-9002424/", "type": "boundary", "who": "Kocas\u0131", "year": 2016}, "type": "Feature"}, {"geometry": {"coordinates": [30.488692, 39.738626], "type": "Point"}, "properties": {"city": "Eski\u015fehir", "date": "24/11/2016 ", "death": "Kesici Alet ", "name": "Selime Ate\u015f", "reason": "Tart\u0131\u015fma", "req": "Yok", "source": "http://www.sabah.com.tr/yasam/2016/11/24/telefonu-neden-acmiyorsun-dedi-karisini-oldurdu", "type": "boundary", "who": "Kocas\u0131", "year": 2016}, "type": "Feature"}, {"geometry": {"coordinates": [27.401843, 37.036223], "type": "Point"}, "properties": {"city": "Bodrum", "date": "19/11/2016", "death": "Ate\u015fli Silah", "name": "Hafize M\u00fcjde \u00d6zere", "reason": "Tespit Edilemeyen", "req": "Yok", "source": "http://www.sondakikaturk.com.tr/asayis/kadin-kaptan-hafize-mujde-ozer-in-katili-cinayeti-itiraf-etti-h14214.html", "type": "boundary", "who": "Sevgilisi", "year": 2016}, "type": "Feature"}, {"geometry": {"coordinates": [35.287923, 37.006681], "type": "Point"}, "properties": {"city": "Adana", "date": "29/11/2016", "death": "Ate\u015fli Silah", "name": "Seyide D.", "reason": "Tespit Edilemeyen", "req": "Yok", "source": "http://ilerihaber.org/icerik/adanada-bir-kadin-polis-kursunuyla-katledildi-63838.html", "type": "boundary", "who": "Kay\u0131nbiraderi", "year": 2016}, "type": "Feature"}, {"geometry": {"coordinates": [27.885199, 39.682467], "type": "Point"}, "properties": {"city": "Bal\u0131kesir", "date": "30/11/2016", "death": "Kesici Alet", "name": "M\u00fcnevver Erkan", "reason": "Tespit Edilemeyen", "req": "Yok", "source": "http://www.gercekgundem.com/guncel/245698/annesini-oldurdu-vahiy-geldi-dedi", "type": "boundary", "who": "O\u011flu", "year": 2016}, "type": "Feature"}, {"geometry": {"coordinates": [38.295796, 38.356007], "type": "Point"}, "properties": {"city": "Malatya", "date": "01/10/2016", "death": "Ate\u015fli Silah", "name": "Seycan B.", "reason": "Tespit Edilemeyen", "req": "Yok", "source": "http://www.haber7.com/malatya/2149535-malatyada-kadin-cinayeti", "type": "boundary", "who": "Tan\u0131d\u0131\u011f\u0131 Birisi", "year": 2016}, "type": "Feature"}, {"geometry": {"coordinates": [30.472676, 39.79268], "type": "Point"}, "properties": {"city": "Eski\u015fehir", "date": "04/10/2016", "death": "Kesici Alet", "name": "Elvan Dedeler", "reason": "K\u0131skan\u00e7l\u0131k", "req": "Yok", "source": "http://www.haberekspres.com.tr/gundem/4-cocugunun-annesini-49-kez-bicaklayarak-oldurdu-h94581.html", "type": "boundary", "who": "Kocas\u0131", "year": 2016}, "type": "Feature"}, {"geometry": {"coordinates": [38.828313, 37.119653], "type": "Point"}, "properties": {"city": "\u015eanl\u0131urfa", "date": "05/10/2016", "death": "Bo\u011fma", "name": "Havva Eker", "reason": "Tespit Edilemeyen", "req": "Yok", "source": "http://www.urfanatik.com/asayis/urfa-da-cezaevinden-kacan-koca-karisini-oldurdu-h55801.html", "type": "boundary", "who": "Kocas\u0131", "year": 2016},