{"features": [{"geometry": {"coordinates": [28.990723, 41.078728], "type": "Point"}, "properties": {"city": "\u0130stanbul", "date": "20/06/2019", "death": "Ate\u015fli Silah", "name": "Gamze Ceylan", "reason": "Tespit Edilemeyen", "req": "Yok", "source": "http://www.milliyet.com.tr/bayildi-sandim-olmus--gundem-2892051/", "type": "boundary", "who": " Tan\u0131d\u0131\u011f\u0131 Birisi", "year": 2018}, "type": "Feature"}, {"geometry": {"coordinates": [28.954687, 41.022672], "type": "Point"}, "properties": {"city": "\u0130stanbul", "date": "08/10/2018", "death": "Ate\u015fli Silah", "name": "Z\u00fclfiye Y\u0131ld\u0131z", "reason": "Bo\u015fanma Talebi", "req": "Yok", "source": "http://www.milliyet.com.tr/9-el-ates-etti-mahkemede-pes--gundem-2843741/", "type": "boundary", "who": "Kocas\u0131", "year": 2018}, "type": "Feature"}, {"geometry": {"coordinates": [30.673204, 36.903985], "type": "Point"}, "properties": {"city": "Antalya", "date": "19/10/2018", "death": "Darp", "name": "Nailia Nutfullina", "reason": "K\u0131skan\u00e7l\u0131k", "req": "Yok", "source": "http://www.milliyet.com.tr/sen-beni-doyuramiyorsun-deyince-gundem-2823882/", "type": "boundary", "who": "Sevgilisi", "year": 2018}, "type": "Feature"}, {"geometry": {"coordinates": [32.89397, 39.887056], "type": "Point"}, "properties": {"city": "Ankara", "date": "30/12/2018", "death": "Ate\u015fli Silah, Kesici Alet", "name": "Ceren Damar \u015eenel", "reason": "Tart\u015fma, Nefret", "req": "Yok", "source": "http://www.hurriyet.com.tr/gundem/acili-esten-hayat-dersi-41072314http://gazetekarinca.com/2019/01/akademisyen-ceren-damar-senel-ogrencisi-tarafindan-olduruldu/", "type": "boundary", "who": "Tan\u0131d\u0131\u011f\u0131 Birisi", "year": 2018}, "type": "Feature"}, {"geometry": {"coordinates": [31.163182, 40.850839], "type": "Point"}, "properties": {"city": "D\u00fczce", "date": "18/12/2018", "death": "Tespit Edilemeyen", "name": "Dilek Da\u011fdelen", "reason": "Tespit Edilemeyen", "req": "Yok", "source": "http://www.istanbulgercegi.com/18-gundur-kayip-olan-kadinin-cesedi-ormanda-parcalanmis-halde-bulundu_186931.html#.XDGimR_7BU0.twitter", "type": "boundary", "who": "Sevgilisi", "year": 2018}, "type": "Feature"}, {"geometry": {"coordinates": [36.323326, 41.315074], "type": "Point"}, "properties": {"city": "Samsun", "date": "02/12/2018", "death": "Kesici Alet", "name": "Merve \u00d6zcan", "reason": "Tart\u0131\u015fma", "req": "Yok", "source": "https://www.haberturk.com/samsun-haberleri/65113453-hastane-otoparkinda-bosandigi-karisini-19-bicak-darbesiyle-oldurdu", "type": "boundary", "who": "Eski Kocas\u0131", "year": 2018}, "type": "Feature"}, {"geometry": {"coordinates": [34.676192, 36.837918], "type": "Point"}, "properties": {"city": "Mersin", "date": "28/11/2018", "death": "Belirtilmemi\u015f", "name": "Cemile Ert\u00fcrko\u011flu", "reason": "Bo\u015fanma Talebi", "req": "Yok", "source": "https://www.evrensel.net/haber/367388/kadin-cinayeti-sorusturmasina-gizlilik-karari", "type": "boundary", "who": "Kocas\u0131", "year": 2018}, "type": "Feature"}, {"geometry": {"coordinates": [40.165655, 37.933459], "type": "Point"}, "properties": {"city": "Diyarbak\u0131r", "date": "07/12/2018", "death": "Kesici Alet", "name": "Rojbin Yeti\u015f", "reason": "Bo\u015fanma Talebi", "req": "Yok", "source": "http://www.kamubulteni.com/yerel-haberler/2-cocuk-annesi-19-yasindaki-kadini-kocasi-on-yerinden-bicakladi-h4593.html", "type": "boundary", "who": "Kocas\u0131", "year": 2018}, "type": "Feature"}, {"geometry": {"coordinates": [39.258793, 38.664827], "type": "Point"}, "properties": {"city": "Elaz\u0131\u011f", "date": "13/12/2018", "death": "Ate\u015fli Silah", "name": "Aynur Top", "reason": "Tespit Edilemeyen", "req": "Yok", "source": "https://www.haberturk.com/elazig-haberleri/65379988-eski-koca-dehseti-karisini-oldurdu-2-kizini-yaraladi", "type": "boundary", "who": "Eski Kocas\u0131", "year": 2018}, "type": "Feature"}, {"geometry": {"coordinates": [32.822899, 39.935104], "type": "Point"}, "properties": {"city": "Ankara", "date": "14/12/2018", "death": "Kesici Alet", "name": "G\u00fclseren K.", "reason": "K\u0131skan\u00e7l\u0131k", "req": "Yok", "source": "https://www.iha.com.tr/haber-kiskandigi-sevgilisini-44-yerinden-bicaklayarak-oldurdu-755163/", "type": "boundary", "who": "Sevgilsi", "year": 2018}, "type": "Feature"}, {"geometry": {"coordinates": [29.087679, 40.140326], "type": "Point"}, "properties": {"city": "Bursa", "date": "14/12/2018", "death": "Tespit Edilemeyen", "name": "Arz\u0131 Balaban", "reason": "Tespit Edilemeyen", "req": "Yok", "source": "https://www.haberturk.com/bursa-haberleri/65412289-kayip-yasli-kadin-olu-bulundu", "type": "boundary", "who": "Tespit Edilemeyen", "year": 2018}, "type": "Feature"}, {"geometry": {"coordinates": [30.700231, 36.909991], "type": "Point"}, "properties": {"city": "Antalya", "date": "14/12/2018", "death": "Y\u00fcksekten D\u00fc\u015fme", "name": "Melahat \u00d6zen", "reason": "Tespit Edilemeyen", "req": "Yok", "source": "https://www.gazetebir.com.tr/haber/falezlerde-ceset-soku/", "type": "boundary", "who": "Tespit Edilemeyen", "year": 2018}, "type": "Feature"}, {"geometry": {"coordinates": [27.539084, 40.955617], "type": "Point"}, "properties": {"city": "Tekirda\u011f", "date": "15/12/2018", "death": "Tespit Edilemeyen", "name": "R.K.", "reason": "Tespit Edilemeyen", "req": "Yok", "source": "https://www.haberler.com/tekirdag-da-bir-kadin-evde-olu-bulundu-11540595-haberi/", "type": "boundary", "who": "Tespit Edilemeyen", "year": 2018}, "type": "Feature"}, {"geometry": {"coordinates": [34.731246, 38.660878], "type": "Point"}, "properties": {"city": "Nev\u015fehir", "date": "15/12/2018", "death": "Ate\u015fli Silah", "name": "Seda Ulu", "reason": "Tespit Edilmeyen", "req": "Yok", "source": "https://www.trhaberler.com/3-sayfa-cinayet-kaza/once-karisini-oldurdu-sonra-intihar-etti-h360631.html", "type": "boundary", "who": "Kocas\u0131", "year": 2018}, "type": "Feature"}, {"geometry": {"coordinates": [28.954687, 41.057707], "type": "Point"}, "properties": {"city": "\u0130stanbul", "date": "17/12/2018", "death": "Ate\u015fli Silah", "name": "Meral T.", "reason": "Bo\u015fanma Talebi", "req": "Yok", "source": "https://www.takvim.com.tr/webtv/video-haber/video/bagcilarda-ofkeli-koca-dehset-sactionce-karisini-oldurdu-ardindan-intihara-tesebbus-etti", "type": "boundary", "who": "Kocas\u0131", "year": 2018}, "type": "Feature"}, {"geometry": {"coordinates": [32.518761, 37.834854], "type": "Point"}, "properties": {"city": "Konya", "date": "18/12/2018", "death": "Ate\u015fli Silah", "name": "Esme El H.", "reason": "Tart\u0131\u015fma", "req": "Yok ", "source": "https://www.haberturk.com/konya-haberleri/17182477-tartistigi-karisini-tufekle-oldurdu", "type": "boundary", "who": "Kocas\u0131", "year": 2018}, "type": "Feature"}, {"geometry": {"coordinates": [36.144706, 36.239406], "type": "Point"}, "properties": {"city": "Hatay", "date": "19/12/2018", "death": "Ate\u015fli Silah", "name": "Meral U.", "reason": "Tart\u0131\u015fma", "req": "Yok", "source": "http://www.malatyaguncel.com/yengesini-tabancayla-vurarak-oldurdu-1122660h.htm", "type": "boundary", "who": "Kay\u0131npederi", "year": 2018}, "type": "Feature"}, {"geometry": {"coordinates": [40.48665, 37.47715], "type": "Point"}, "properties": {"city": "Maz\u0131da\u011f\u0131", "date": "20/12/2018", "death": "Ate\u015fli Silah", "name": "Sadiye And\u0131\u015f", "reason": "Tart\u0131\u015fma", "req": "Yok", "source": "http://www.mardinlife.com/Mazidaginda-Damat-Cinneti-haberi-36621", "type": "boundary", "who": "Damad\u0131", "year": 2018}, "type": "Feature"}, {"geometry": {"coordinates": [36.574904, 40.308945], "type": "Point"}, "properties": {"city": "Tokat", "date": "24/12/2018", "death": "Ate\u015fli Silah", "name": "Sevgi V.", "reason": "Reddedilme", "req": "Yok", "source": "https://www.birgun.net/haber-detay/tokatta-kadin-cinayeti-bag-evine-goturup-katletti.html", "type": "boundary", "who": "Sevgilisi", "year": 2018}, "type": "Feature"}, {"geometry": {"coordinates": [35.350986, 37.026701], "type": "Point"}, "properties": {"city": "Adana", "date": "26/12/2018", "death": "Ate\u015fli Silah", "name": "Sevda \u00c7opur", "reason": "Tart\u0131\u015fma", "req": "Yok", "source": "https://www.sabah.com.tr/yasam/2018/12/26/tartistigi-karisini-bicaklayarak-oldurdu", "type": "boundary", "who": "Kocas\u0131", "year": 2018}, "type": "Feature"}, {"geometry": {"coordinates": [29.014747, 41.102752], "type": "Point"}, "properties": {"city": "\u0130stanbul", "date": "25/12/2018", "death": "Tespit Edilemeyen", "name": "Ayten Ad\u0131g\u00fczel Delig\u00f6zo\u011flu", "reason": "Tespit Edilmeyen", "req": "Yok", "source": "https://twitter.com/kadinmeclisleri/status/1077930440026193921", "type": "boundary", "who": "Kocas\u0131", "year": 2018}, "type": "Feature"}, {"geometry": {"coordinates": [38.803288, 37.152686], "type": "Point"}, "properties": {"city": "\u015eanl\u0131urfa", "date": "26/12/2019", "death": "Kesici Alet", "name": "\u0130smi Bilinmiyor", "reason": "Tart\u0131\u015fma", "req": "Yok", "source": "https://www.agrisoz.com/sanliurfada-tartistigi-karisini-bicaklayarak-oldurdu-60589h.htm", "type": "boundary", "who": "Kocas\u0131", "year": 2018}, "type": "Feature"}, {"geometry": {"coordinates": [26.406482, 40.111543], "type": "Point"}, "properties": {"city": "\u00c7anakkale", "date": "28/12/2018", "death": "Ate\u015fli Silah", "name": "Filiz \u00c7ay\u0131rl\u0131", "reason": "Tart\u0131\u015fma, Kaza", "req": "Yok", "source": "https://www.haber3.com/guncel/3-sayfa/halk-pazarinda-cinayet-yasli-kadin-olduruldu-haberi-4979242", "type": "boundary", "who": "Tan\u0131mad\u0131\u011f\u0131 Birisi", "year": 2018}, "type": "Feature"}, {"geometry": {"coordinates": [27.099828, 38.450214], "type": "Point"}, "properties": {"city": "\u0130zmir", "date": "29/12/2018", "death": "Ate\u015fli Silah", "name": "P\u0131nar \u00c7oban", "reason": "Tespit Edilemeyen", "req": "Yok", "source": "https://www.sabah.com.tr/yasam/2018/12/29/izmirde-korkunc-olay-vucut-gelistirme-sporcusu-kadin-evinde-olduruldu", "type": "boundary", "who": "Sevgilisi", "year": 2018}, "type": "Feature"}, {"geometry": {"coordinates": [27.166895, 38.464228], "type": "Point"}, "properties": {"city": "\u0130zmir", "date": "29/12/2018", "death": "Ate\u015fli Silah", "name": "Nesrin Cengiz", "reason": "Tart\u0131\u015fma", "req": "Yok", "source": "https://www.cnnturk.com/video/turkiye/hem-kardesini-hem-de-enistesini-oldurdu", "type": "boundary", "who": "Karde\u015fi", "year": 2018}, "type": "Feature"}, {"geometry": {"coordinates": [32.885962, 39.947116], "type": "Point"}, "properties": {"city": "Ankara", "date": "02/12/2018", "death": "Ate\u015fli Silah", "name": "Farnoosh Ghe\u0131b\u0131", "reason": "Tart\u0131\u015fma", "req": "Yok", "source": "https://www.t24.com.tr/haber/cep-telefonunu-kaybettin-kavgasinda-esini-vurmustu-olayda-en-cok-uzulen-ve-magdur-olan-kisi-benim,812469", "type": "boundary", "who": "Kocas\u0131", "year": 2018}, "type": "Feature"}, {"geometry": {"coordinates": [27.519064, 40.997659], "type": "Point"}, "properties": {"city": "Tekirda\u011f", "date": "09/04/2018", "death": "Bo\u011fma", "name": "G\u00fczel Belli", "reason": "Tart\u0131\u015fma", "req": "Yok", "source": "http://www.hurriyet.com.tr/gazete-mansetleri/pazar-gunu-korkunc-haber-canavar-yakalandi-40798430", "type": "boundary", "who": "Kocas\u0131", "year": 2018}, "type": "Feature"}, {"geometry": {"coordinates": [37.331116, 37.061519], "type": "Point"}, "properties": {"city": "Gaziantep", "date": "08/04/2018", "death": "Kesici Alet", "name": "Sevda Bet\u00fcl Alt\u0131nta\u015f", "reason": "Tart\u0131\u015fma", "req": "Yok", "source": "http://www.posta.com.tr/surucu-kursunda-kadin-cinayeti-1402582", "type": "boundary", "who": "Tan\u0131d\u0131\u011f\u0131 Birisi", "year": 2018}, "type": "Feature"}, {"geometry": {"coordinates": [34.609125, 36.830911], "type": "Point"}, "properties": {"city": "Mersin", "date": "07/04/2018", "death": "Bo\u011fulma", "name": "Elif E\u015fim", "reason": "\u0130ntihar", "req": "Yok", "source": "http://www.posta.com.tr/mersin-de-kendisinden-haber-alinamayan-kadinin-cesedi-bulundu-1402348", "type": "boundary", "who": "Kenidisi", "year": 2018}, "type": "Feature"}, {"geometry": {"coordinates": [29.035627, 40.198384], "type": "Point"}, "properties": {"city": "Bursa", "date": "08/04/2018", "death": "Bo\u011fulma", "name": "\u00d6mriye Karadeniz", "reason": "Tespit Edilemeyen", "req": "Yok", "source": "http://www.hurriyet.com.tr/barajda-cesedi-bulunan-kadinin-kimligi-belirlen-40798295", "type": "boundary", "who": "Tespite Edilemeyen", "year": 2018}, "type": "Feature"}, {"geometry": {"coordinates": [29.93456, 40.76695], "type": "Point"}, "properties": {"city": "\u0130zmit", "date": "28/05/2018", "death": "Bo\u011fulma", "name": "Fatma Barut", "reason": "Tespit Edileyemeyn", "req": "Yok", "source": "http://www.milliyet.com.tr/kayip-kadinin-golette-cesedi-gundem-2677890/", "type": "boundary", "who": "Tespit Edilemeyen", "year": 2018}, "type": "Feature"}, {"geometry": {"coordinates": [27.165894, 38.428192], "type": "Point"}, "properties": {"city": "\u0130zmir", "date": "04/06/2018", "death": "Kesici Alet", "name": "Fadime Y.", "reason": "K\u0131z\u0131n\u0131 Korurken", "req": "Yok", "source": "http://www.milliyet.com.tr/barismak-icin-gitti-cinnet-gecirdi-gundem-2682050/", "type": "boundary", "who": "K\u0131z\u0131n\u0131n Eski Sevgilisi", "year": 2018}, "type": "Feature"}, {"geometry": {"coordinates": [30.757288, 36.847929], "type": "Point"}, "properties": {"city": "Antalya", "date": "03/06/2018", "death": "Bo\u011fma", "name": "Fatma Fa\u011f\u0131rci", "reason": "K\u0131skan\u00e7l\u0131k", "req": "Yok", "source": "http://www.milliyet.com.tr/birlikte-yasadigi-kadini-bogarak-gundem-2681776/", "type": "boundary", "who": "Sevgilisi", "year": 2018}, "type": "Feature"}, {"geometry": {"coordinates": [43.095633, 40.592739], "type": "Point"}, "properties": {"city": "Kars", "date": "30/05/2018", "death": "Kesici Alet", "name": "Sezen Alkan", "reason": "Tart\u0131\u015fma", "req": "Yok", "source": "http://www.milliyet.com.tr/oldurulen-annesinin-karnindan-gundem-2681506/", "type": "boundary", "who": "Kocas\u0131", "year": 2018}, "type": "Feature"}, {"geometry": {"coordinates": [29.087679, 40.143329], "type": "Point"}, "properties": {"city": "Bursa", "date": "01/06/2018", "death": "Ate\u015fli Silah", "name": "\u0130pek Y\u0131lmazcan", "reason": "Husumet", "req": "Yok", "source": "http://www.milliyet.com.tr/9-aylik-hamile-kadin-basindan-gundem-2680708/", "type": "boundary", "who": "Tan\u0131d\u0131\u011f\u0131 Birisi", "year": 2018}, "type": "Feature"}, {"geometry": {"coordinates": [32.857934, 39.949118], "type": "Point"}, "properties": {"city": "Ankara", "date": "01/06/2018", "death": "D\u00fc\u015fme", "name": "\u015eule \u00c7et", "reason": "Tespit Edilemeyen", "req": "Yok", "source": "http://www.milliyet.com.tr/20-kattan-dusen-universiteli-genc-gundem-2680332/", "type": "boundary", "who": "Tan\u0131d\u0131\u011f\u0131 Birisi", "year": 2018}, "type": "Feature"}, {"geometry": {"coordinates": [36.956128, 37.599834], "type": "Point"}, "properties": {"city": "Kahramanmara\u015f", "date": "30/05/2018", "death": "Kesici Alet", "name": "Hanife Akdi\u015fli", "reason": "Tart\u0131\u015fma", "req": "Yok", "source": "http://www.milliyet.com.tr/20-kattan-dusen-universiteli-genc-gundem-2680332/", "type": "boundary", "who": "Ye\u011feni", "year": 2018}, "type": "Feature"}, {"geometry": {"coordinates": [35.295931, 37.027702], "type": "Point"}, "properties": {"city": "Adana", "date": "31/05/2018", "death": "Ate\u015fli Silah", "name": "Nilay G\u00fcng\u00f6r", "reason": "Bo\u015fanma Talebi", "req": "Yok", "source": "http://www.milliyet.com.tr/bosanmak-isteyen-esini-kizinin-gundem-2679937/", "type": "boundary", "who": "Kocas\u0131", "year": 2018}, "type": "Feature"}, {"geometry": {"coordinates": [36.986199, 39.756346], "type": "Point"}, "properties": {"city": "Sivas", "date": "22/01/2018", "death": "Kesici Alet", "name": "Halime Sadad", "reason": "Tart\u0131\u015fma", "req": "Yok", "source": "http://www.ensonhaber.com/sivasta-yasayan-afgan-ailede-kavga-karisini-oldurdu.html", "type": "boundary", "who": "Kocas\u0131", "year": 2018}, "type": "Feature"}, {"geometry": {"coordinates": [29.925546, 40.748393], "type": "Point"}, "properties": {"city": "Kocaeli", "date": "23/01/2018", "death": "Kesici Alet", "name": "Selva H\u0131d\u0131r Ali", "reason": "Tart\u0131\u015fma, K\u0131\u015fkan\u00e7l\u0131k", "req": "Yok", "source": "https://www.sabah.com.tr/yasam/2018/01/23/3-koca-3-vahset", "type": "boundary", "who": "Kocas\u0131", "year": 2018}, "type": "Feature"}, {"geometry": {"coordinates": [36.993206, 39.765355], "type": "Point"}, "properties": {"city": "Sivas", "date": "23/01/2018", "death": "Kesici Alet", "name": "Bibi Halime Sedat", "reason": "Reddedilme, Tart\u0131\u015fma", "req": "Yok", "source": "https://www.sabah.com.tr/yasam/2018/01/23/3-koca-3-vahset", "type": "boundary", "who": "Kocas\u0131", "year": 2018}, "type": "Feature"}, {"geometry": {"coordinates": [29.02776, 41.107757], "type": "Point"}, "properties": {"city": "\u0130stanbul", "date": "24/01/2018", "death": "Darp", "name": "Elham At\u0131f\u0131", "reason": "Tart\u0131\u015fma", "req": "Yok", "source": "http://www.posta.com.tr/afganistanli-adam-esini-oldurdu-cinayeti-kadinin-annesine-acilan-telefon-cozdu-haberi-1375005", "type": "boundary", "who": "Kocas\u0131", "year": 2018}, "type": "Feature"}, {"geometry": {"coordinates": [27.476439, 38.629937], "type": "Point"}, "properties": {"city": "Manisa", "date": "25/01/2018", "death": "Kesici Alet", "name": "Ummuhan K.", "reason": "Bilinmiyor", "req": "Yok", "source": "https://www.haberler.com/80-yasindaki-annesini-oldurdu-10492181-haberi/", "type": "boundary", "who": "O\u011flu", "year": 2018}, "type": "Feature"}, {"geometry": {"coordinates": [41.280253, 39.908643], "type": "Point"}, "properties": {"city": "Erzurum", "date": "27/01/2018", "death": "Belirtilmemi\u015f", "name": "Nigar Ak\u00e7elik", "reason": "Bilinmiyor", "req": "Yok", "source": "https://www.haberler.com/erzurum-da-yasli-kadin-evinde-olu-bulundu-10501938-haberi/", "type": "boundary", "who": "Bilinmiyor", "year": 2018}, "type": "Feature"}, {"geometry": {"coordinates": [36.16873, 36.18335], "type": "Point"}, "properties": {"city": "Hatay", "date": "27/01/2018", "death": "Kesici Alet", "name": "G\u00fclhan G\u00fcler", "reason": "Bilinmiyor", "req": "Yok", "source": "http://www.star.com.tr/guncel/hatayda-asi-nehrinde-bulunan-cesedin-kimligi-belli-oldu-haber-1302752/", "type": "boundary", "who": "Bilinmiyor", "year": 2018}, "type": "Feature"}, {"geometry": {"coordinates": [36.383386, 41.264023], "type": "Point"}, "properties": {"city": "Samsun", "date": "28/01/2018", "death": "Ate\u015fli Silah", "name": "Merdiye Palat", "reason": "Tart\u0131\u015fma", "req": "Yok", "source": "http://www.samsunhaberhatti.com/haber/samsundaki-arazi-kavgasinda-kan-akti-bir-kadin-oldu/181295", "type": "boundary", "who": "Tan\u0131d\u0131\u011f\u0131 Birisi", "year": 2018}, "type": "Feature"}, {"geometry": {"coordinates": [30.550202, 38.723916], "type": "Point"}, "properties": {"city": "Afyonkarahisar", "date": "29/01/2018", "death": "Ate\u015fli Silah", "name": "H\u00fcr\u00fc Sar\u0131kaya", "reason": "Husumet", "req": "Yok", "source": "https://www.haberler.com/hastane-kantininde-kadin-cinayeti-10506553-haberi/", "type": "boundary", "who": "Bilinmiyor", "year": 2018}, "type": "Feature"}, {"geometry": {"coordinates": [37.421206, 37.09255], "type": "Point"}, "properties": {"city": "Gaziantep", "date": "30/01/2018", "death": "Ate\u015fli Silah", "name": "Semre Beyo\u011flu", "reason": "Bo\u015fanma Talebi", "req": "Yok", "source": "http://www.hurriyet.com.tr/ayri-yasadigi-karisini-oldurerek-intihar-etti-40726200", "type": "boundary", "who": "Kocas\u0131", "year": 2018}, "type": "Feature"}, {"geometry": {"coordinates": [29.01775, 41.039689], "type": "Point"}, "properties": {"city": "\u0130stanbul", "date": "31/01/2018", "death": "Ate\u015fli Silah", "name": "Altyn Demir", "reason": "Tart\u0131\u015fma", "req": "Yok", "source": "http://www.sozcu.com.tr/2018/gundem/sevgilime-kufur-edemezsin-dedi-oldurdu-2196854/", "type": "boundary", "who": "Tan\u0131d\u0131\u011f\u0131\u00a0Birisi", "year": 2018}, "type": "Feature"}, {"geometry": {"coordinates": [27.803851, 41.192287], "type": "Point"}, "properties": {"city": "\u00c7orlu", "date": "30/01/2018", "death": "Belirtilmemi\u015f", "name": "E.D.", "reason": "Bilinmiyor", "req": "Yok", "source": "http://www.iha.com.tr/haber-genc-kadin-evinde-olu-bulundu-707193/", "type": "boundary", "who": "Bilinmiyor", "year": 2018}, "type": "Feature"}, {"geometry": {"coordinates": [29.097689, 40.2144], "type": "Point"}, "properties": {"city": "Bursa", "date": "31/01/2018", "death": "Tespit Edilemeyen", "name": "\u0130smi Bilinmiyor", "reason": "Bilinmiyor", "req": "Bilinmiyor", "source": "http://www.karar.com/guncel-haberler/mudanyada-sahilde-kadin-cesedi-bulundu-740435#", "type": "boundary", "who": "Bilinmiyor", "year": 2018}, "type": "Feature"}, {"geometry": {"coordinates": [40.234724, 37.927453], "type": "Point"}, "properties": {"city": "Diyarbak\u0131r", "date": "31/01/2018", "death": "Ate\u015fli Silah", "name": "\u0130smi Bilinmiyor", "reason": "Bilinmiyor", "req": "Bilinmiyor", "source": "http://www.karar.com/guncel-haberler/mudanyada-sahilde-kadin-cesedi-bulundu-740435#", "type": "boundary", "who": "Bilinmiyor", "year": 2018}, "type": "Feature"}, {"geometry": {"coordinates": [35.280916, 36.957632], "type": "Point"}, "properties": {"city": "Adana", "date": "01/02/2018", "death": "Bilinmiyor", "name": "\u0130smi Bilinmiyor", "reason": "Bilinmiyor", "req": "Bilinmiyor", "source": "http://www.gazetevatan.com/adana-da-curumus-kadin-cesedi-bulundu-1139758-yasam/", "type": "boundary", "who": "Bilinmiyor", "year": 2018}, "type": "Feature"}, {"geometry": {"coordinates": [27.82287, 41.202297], "type": "Point"}, "properties": {"city": "\u00c7orlu", "date": "01/02/2018", "death": "Bilinmiyor", "name": "Esra Dilgin", "reason": "Bilinmiyor", "req": "Bilinmiyor", "source": "http://www.gorunumgazetesi.com.tr/haber/49128/39-yasindaki-kadin-olu-bulundu.html", "type": "boundary", "who": "Bilinmiyor", "year": 2018}, "type": "Feature"}, {"geometry": {"coordinates": [41.141924, 37.858876], "type": "Point"}, "properties": {"city": "Batman", "date": "03/02/2018", "death": "Ate\u015fli Silah", "name": "M.K.", "reason": "Tart\u0131\u015fma", "req": "Yok", "source": "https://ilkha.com/haber/69852/guvenlik-korucusu-karisini-oldurup-intihar-etti", "type": "boundary", "who": "Kocas\u0131", "year": 2018}, "type": "Feature"}, {"geometry": {"coordinates": [30.421101, 40.769283], "type": "Point"}, "properties": {"city": "Sakarya", "date": "05/02/2018", "death": "Tespit Edilemeyen", "name": "Hanife Turan", "reason": "Bilinmiyor", "req": "Yok", "source": "http://www.mynet.com/haber/yasam/59-yasindaki-kadin-evinde-olu-bulundu-3677874-1", "type": "boundary", "who": "Bilinmiyor", "year": 2018}, "type": "Feature"}, {"geometry": {"coordinates": [28.958691, 41.086736], "type": "Point"}, "properties": {"city": "\u0130stanbul", "date": "07/02/2018", "death": "Kesici Alet", "name": "Leyla Karal", "reason": "Tart\u0131\u015fma", "req": "Yok", "source": "https://www.birhaberoku.com/istanbul-da-koca-vahseti-leyla-karal-bogazi-kesilerek-olduruldu-21258.html", "type": "boundary", "who": "Kocas\u0131", "year": 2018}, "type": "Feature"}, {"geometry": {"coordinates": [43.372332, 38.496356], "type": "Point"}, "properties": {"city": "Van", "date": "12/02/2018", "death": "Darp", "name": "Hafife Temel", "reason": "Bilinmiyor", "req": "Yok", "source": "http://gazetekarinca.com/2018/02/vanda-bir-kadin-esi-tarafindan-olduruldu/", "type": "boundary", "who": "Kocas\u0131", "year": 2018}, "type": "Feature"}, {"geometry": {"coordinates": [31.782818, 41.461911], "type": "Point"}, "properties": {"city": "Zonguldak", "date": "11/02/2018", "death": "Ate\u015fli Silah", "name": "Nurg\u00fcl Karako\u00e7 ", "reason": "Bilinmiyor", "req": "Yok", "source": "https://www.saatbasihaber.com/caycuma-da-kadin-cinayeti/85193/", "type": "boundary", "who": "Tan\u0131d\u0131\u011f\u0131 Birisi", "year": 2018}, "type": "Feature"}, {"geometry": {"coordinates": [32.865942, 39.927096], "type": "Point"}, "properties": {"city": "Ankara", "date": "12/02/2018", "death": "Kesici Alet", "name": "Neziha \u00d6ktem", "reason": "Tart\u0131\u015fma, K\u0131skan\u00e7l\u0131k", "req": "Yok", "source": "https://www.sabah.com.tr/ankara-baskent/2018/02/12/eski-sevgilisini-bicaklayarak-oldurdu", "type": "boundary", "who": "Eski Sevgilisi", "year": 2018}, "type": "Feature"}, {"geometry": {"coordinates": [30.670201, 36.879961], "type": "Point"}, "properties": {"city": "Antalya", "date": "28/02/2018", "death": "Bo\u011fma", "name": "Katerina/Ekaterina \u00c7etin", "reason": "Tart\u0131\u015fma", "req": "Yok", "source": "http://www.milliyet.com.tr/katerina-nin-katilinden-dehsete-gundem-2618530/http://www.milliyet.com.tr/kirgiz-asilli-yengesini-bogarak-gundem-2792175/", "type": "boundary", "who": "Kocas\u0131n\u0131n Karde\u015fi", "year": 2018}, "type": "Feature"}, {"geometry": {"coordinates": [34.942841, 40.521221], "type": "Point"}, "properties": {"city": "\u00c7orum", "date": "28/02/2018", "death": "Ate\u015fli Silah", "name": "Gamze Kuru", "reason": "Tart\u0131\u015fma", "req": "Yok", "source": "http://siyasihaber3.org/kadin-cinayeti-bir-erkek-esinin-basina-baltayla-vurarak-oldurdu", "type": "boundary", "who": "Eski Kocas\u0131", "year": 2018}, "type": "Feature"}, {"geometry": {"coordinates": [35.301937, 37.014689], "type": "Point"}, "properties": {"city": "Adana", "date": "13/02/2018", "death": "Ate\u015fli Silah", "name": "Zuhal K\u0131rlang\u0131\u00e7", "reason": "Reddedilme", "req": "Yok", "source": "https://www.haber16.com/eski-kocadan-sevgililer-gunu-vahseti/22786/", "type": "boundary", "who": "Eski Kocas\u0131", "year": 2018}, "type": "Feature"}, {"geometry": {"coordinates": [27.183912, 38.453217], "type": "Point"}, "properties": {"city": "\u0130zmir", "date": "14/02/2018", "death": "Yanma", "name": "H\u00fclya Tekbey", "reason": "Bilinmiyor", "req": "Yok", "source": "https://www.haberler.com/izmir-de-sokak-ortasinda-yanan-genc-kadin-oldu-10561728-haberi/", "type": "boundary", "who": "Biinmiyor", "year": 2018}, "type": "Feature"}, {"geometry": {"coordinates": [29.104906, 37.752157], "type": "Point"}, "properties": {"city": "Denizli", "date": "15/02/2018", "death": "Ate\u015fli Silah", "name": "Ay\u015fe \u015eahin", "reason": "Bilinmiyor", "req": "Var", "source": "http://www.diken.com.tr/goz-gore-gore-katliam-kocam-tehdit-ediyor-diyen-kadin-ve-kizi-iki-gun-sonra-olduruldu/", "type": "boundary", "who": "Kocas\u0131", "year": 2018}, "type": "Feature"}, {"geometry": {"coordinates": [29.087889, 37.786191], "type": "Point"}, "properties": {"city": "Denizli ", "date": "15/02/2018", "death": "Ate\u015fli Silah", "name": "Nurdan \u015eahin", "reason": "Bilinmiyor", "req": "Var", "source": "http://www.diken.com.tr/goz-gore-gore-katliam-kocam-tehdit-ediyor-diyen-kadin-ve-kizi-iki-gun-sonra-olduruldu/", "type": "boundary", "who": "Babas\u0131", "year": 2018}, "type": "Feature"}, {"geometry": {"coordinates": [29.018751, 41.027677], "type": "Point"}, "properties": {"city": "\u0130stanbul", "date": "14/02/2018", "death": "Tespit Edilemeyen", "name": "N\u0131srin K\u0131rdi", "reason": "Bilinmiyor", "req": "Yok", "source": "http://www.milliyet.com.tr/4-cesetten-birinin-kimligi-belli-gundem-2610240/", "type": "boundary", "who": "Bilinmiyor", "year": 2018}, "type": "Feature"}, {"geometry": {"coordinates": [37.833925, 40.964679], "type": "Point"}, "properties": {"city": "Ordu", "date": "15/02/2018", "death": "Ate\u015fli Silah, Kesici Alet", "name": "Bahar K\u0131l\u0131\u00e7", "reason": "Bilinmiyor", "req": "Yok", "source": "http://www.mynet.com/haber/yasam/amcasinin-tufek-ve-bicakli-saldirisinda-oglu-olen-kadin-da-kurtarilamadi-3730000-1", "type": "boundary", "who": "Amcas\u0131", "year": 2018}, "type": "Feature"}, {"geometry": {"coordinates": [29.012604, 40.225411], "type": "Point"}, "properties": {"city": "Bursa", "date": "16/02/2018", "death": "Tespit Edilemeyen", "name": "Nuray Vatansever", "reason": "Bilinmiyor", "req": "Yok", "source": "http://www.hurriyet.com.tr/bursada-derede-kadin-cesedi-bulundu-2-40744515", "type": "boundary", "who": "Bilinmiyor", "year": 2018}, "type": "Feature"}, {"geometry": {"coordinates": [27.870184, 39.664449], "type": "Point"}, "properties": {"city": "Bal\u0131kesir", "date": "17/02/2018", "death": "Tespit Edilemeyen", "name": "G\u00fclfidan K\u0131vrak", "reason": "Bilinmiyor", "req": "Yok", "source": "http://www.yeniakit.com.tr/haber/balikesirde-kaybolan-kadin-cobanin-cesedi-bulundu-425150.html", "type": "boundary", "who": "Bilinmiyor", "year": 2018}, "type": "Feature"}, {"geometry": {"coordinates": [36.241893, 37.116634], "type": "Point"}, "properties": {"city": "Osmaniye", "date": "18/02/2018", "death": "Ate\u015fli Silah", "name": "H\u00fcr\u00fc Temiz", "reason": "Tart\u0131\u015fma", "req": "Yok", "source": "http://www.hurriyet.com.tr/yine-kadin-cinayeti-esini-pompali-tufekle-oldurdu-40745727", "type": "boundary", "who": "Kocas\u0131", "year": 2018}, "type": "Feature"}, {"geometry": {"coordinates": [36.299302, 41.292051], "type": "Point"}, "properties": {"city": "Samsun", "date": "18/02/2018", "death": "Bo\u011fulma", "name": "Aysen K\u0131z\u0131l", "reason": "Bilinmiyor", "req": "Yok", "source": "http://www.hurriyet.com.tr/yine-kadin-cinayeti-esini-pompali-tufekle-oldurdu-40745727", "type": "boundary", "who": "Bilinmiyor", "year": 2018}, "type": "Feature"}, {"geometry": {"coordinates": [35.440467, 38.676876], "type": "Point"}, "properties": {"city": "Kayseri", "date": "18/02/2018", "death": "Tespit Edilemeyen", "name": "\u0130smi Bilinmiyor", "reason": "Bilinmiyor", "req": "Bilinmiyor", "source": "http://www.hurriyet.com.tr/yatakta-olu-bulunan-kadinin-uyusturucudan-oldug-40745650", "type": "boundary", "who": "Bilinmiyor", "year": 2018}, "type": "Feature"}, {"geometry": {"coordinates": [32.884961, 39.892061], "type": "Point"}, "properties": {"city": "Ankara", "date": "19/02/2018", "death": "Ate\u015fli Silah", "name": "C.\u00d6.", "reason": "K\u0131skan\u00e7l\u0131k", "req": "Yok", "source": "http://www.iha.com.tr/haber-sokak-ortasinda-cinayet-kamerada-esini-ve-sevgilisini-olduren-sahis-yakalandi-712089/", "type": "boundary", "who": "Kocas\u0131", "year": 2018}, "type": "Feature"}, {"geometry": {"coordinates": [30.687218, 36.884966], "type": "Point"}, "properties": {"city": "Antalya", "date": "23/02/2018", "death": "Kesici Alet", "name": "Bahria Aljalmoud", "reason": "Bilinmiyor", "req": "Yok", "source": "http://www.mynet.com/haber/yasam/suriyeli-kadin-evinde-bicaklanarak-olduruldu-3766844-1", "type": "boundary", "who": "Bilinmiyor", "year": 2018}, "type": "Feature"}, {"geometry": {"coordinates": [29.925551, 40.762946], "type": "Point"}, "properties": {"city": "\u0130zmit", "date": "24/02/2018", "death": "Ate\u015fli Silah", "name": "Fatma Y\u0131lmaz", "reason": "H\u0131rs\u0131zl\u0131k", "req": "Yok", "source": "https://www.haber16.com/ahirda-hirsizlarla-karsilasan-kadin-pompali-tufekle-olduruldu/23921/", "type": "boundary", "who": "Tan\u0131mad\u0131\u011f\u0131 Birileri", "year": 2018}, "type": "Feature"}, {"geometry": {"coordinates": [27.096825, 38.381145], "type": "Point"}, "properties": {"city": "\u0130zmir", "date": "25/02/2018", "death": "Kesici Alet", "name": "Tuna \u00c7opur", "reason": "Tart\u0131\u015fma", "req": "Yok", "source": "http://www.hurriyet.com.tr/anne-ve-babasini-bicaklayarak-oldurdu-40753128", "type": "boundary", "who": "O\u011flu", "year": 2018}, "type": "Feature"}, {"geometry": {"coordinates": [39.70598, 40.970494], "type": "Point"}, "properties": {"city": "Trabzon", "date": "26/02/2018", "death": "Tespit Edilemeyen", "name": "Alena Topalo\u011flu", "reason": "Bilinmiyor", "req": "Yok", "source": "http://www.hurriyet.com.tr/rus-asilli-turk-vatandasi-kadin-evinde-olu-bul-40754266", "type": "boundary", "who": "Bilinmiyor", "year": 2018}, "type": "Feature"}, {"geometry": {"coordinates": [27.135864, 38.461225], "type": "Point"}, "properties": {"city": "\u0130zmir", "date": "27/02/2018", "death": "D\u00fc\u015fme", "name": "Zuhal \u00d6cal", "reason": "Bilinmiyor", "req": "Yok", "source": "http://www.milligazete.com.tr/haber/1508701/7nci-kattan-dusen-kadin-oldu", "type": "boundary", "who": "Bilinmiyor", "year": 2018}, "type": "Feature"}, {"geometry": {"coordinates": [34.96186, 40.512212], "type": "Point"}, "properties": {"city": "\u00c7orum", "date": "27/02/2018", "death": "Tespit Edilemeyen", "name": "Sevgi K\u00f6kener", "reason": "Bilinmiyor", "req": "Yok", "source": "http://www.milligazete.com.tr/haber/1508701/7nci-kattan-dusen-kadin-oldu", "type": "boundary", "who": "Bilinmiyor", "year": 2018}, "type": "Feature"}, {"geometry": {"coordinates": [30.584128, 37.805182], "type": "Point"}, "properties": {"city": "\u0130sparta", "date": "19/02/2018", "death": "Ate\u015fli Silah", "name": "Ay\u015fe Ba\u015faran", "reason": "Tart\u0131\u015fma", "req": "Yok", "source": "http://www.turkiyegazetesi.com.tr/yasam/546787.aspx", "type": "boundary", "who": "Eski Kocas\u0131", "year": 2018}, "type": "Feature"}, {"geometry": {"coordinates": [29.936562, 40.720904], "type": "Point"}, "properties": {"city": "\u0130zmit", "date": "28/02/2018", "death": "Bo\u011fulma", "name": "\u0130smi Bilinmiyor", "reason": "Bilinmiyor", "req": "Bilinmiyor", "source": "http://www.enkocaeli.com/2018/02/28/izmit-sahilinde-kadin-cesedi-bulundu/", "type": "boundary", "who": "Bilinmiyor", "year": 2018}, "type": "Feature"}, {"geometry": {"coordinates": [28.963696, 41.065715], "type": "Point"}, "properties": {"city": "\u0130stanbul", "date": "08/03/2018", "death": "Kesici Alet, Bo\u011fma", "name": "Roman", "reason": "Nefret Cinayeti", "req": "Yok", "source": "http://www.milliyet.com.tr/ayrintilar-ortaya-cikti-kadin-gundem-2624543/", "type": "boundary", "who": "Tan\u0131d\u0131\u011f\u0131 Biri", "year": 2018}, "type": "Feature"}, {"geometry": {"coordinates": [27.185914, 38.452216], "type": "Point"}, "properties": {"city": "\u0130zmir", "date": "09/03/2018", "death": "Bo\u011fma", "name": "Ceylin Atik", "reason": "Para", "req": "Yok", "source": "http://www.milliyet.com.tr/kucuk-ceylin-in-olumuyle-ilgili-gundem-2624495/", "type": "boundary", "who": "Tan\u0131d\u0131\u011f\u0131 Birileri", "year": 2018}, "type": "Feature"}, {"geometry": {"coordinates": [28.958691, 41.106756], "type": "Point"}, "properties": {"city": "\u0130stanbul", "date": "23.02.2018", "death": "Bo\u011fularak", "name": "Maiko Dzidziguri ", "reason": "Belirtilmemi\u015f", "req": "Yok", "source": "http://www.milliyet.com.tr/gurcu-kadinin-esrarengiz-olumu--gundem-2615313/https://www.cnnturk.com/turkiye/50-yasindaki-kadinin-sir-olumu-cinayet-cikti", "type": "boundary", "who": "Bilinmiyor", "year": 2018}, "type": "Feature"}, {"geometry": {"coordinates": [35.44347, 38.747947], "type": "Point"}, "properties": {"city": "Kayseri", "date": "24/02/2018", "death": "Kesici Alet", "name": "H.Y.", "reason": "Tart\u0131\u015fma", "req": "Yok", "source": "http://siyasihaber3.org/kadin-cinayeti-bir-kadin-5-yasindaki-cocugunun-yaninda-bicaklanarak-olduruldu", "type": "boundary", "who": "Kocas\u0131", "year": 2018}, "type": "Feature"}, {"geometry": {"coordinates": [31.167186, 40.833822], "type": "Point"}, "properties": {"city": "D\u00fczce", "date": "10/02/2018", "death": "Ate\u015fli Silah", "name": "Hatice Ko\u00e7", "reason": "Bo\u015fanma Talebi", "req": "Yok", "source": "http://siyasihaber3.org/kadin-cinayeti-bir-erkek-bosanmak-isteyen-esini-sokak-ortasinda-oldurup-intihar-etti", "type": "boundary", "who": "Kocas\u0131", "year": 2018}, "type": "Feature"}, {"geometry": {"coordinates": [27.108837, 38.381145], "type": "Point"}, "properties": {"city": "\u0130zmir", "date": "10/02/2018", "death": "Kesici Alet", "name": "Ay\u015fe Keltek", "reason": "Bilinmiyor", "req": "Yok", "source": "http://siyasihaber3.org/kadin-cinayeti-bir-kadin-yalniz-yasadigi-evinde-bogazi-kesilerek-olduruldu", "type": "boundary", "who": "Bilinmiyor", "year": 2018}, "type": "Feature"}, {"geometry": {"coordinates": [38.80529, 37.144678], "type": "Point"}, "properties": {"city": "\u015eanl\u0131urfa", "date": "10/02/2018", "death": "D\u00fc\u015fme", "name": "Fatma P.", "reason": "Tart\u0131\u015fma", "req": "Yok", "source": "http://siyasihttp://www.milliyet.com.tr/balkondan-atlayan-8-aylik-hamile-gundem-2607551/haber3.org/bursada-kadin-cinayeti-34-yasindaki-kadin-6-yerinden-bicaklandi", "type": "boundary", "who": "Bilinmiyor", "year": 2018}, "type": "Feature"}, {"geometry": {"coordinates": [29.9525, 40.176312], "type": "Point"}, "properties": {"city": "Bilecik", "date": "07/01/2018", "death": "Vurucu Alet", "name": "Zeynep Fedakar", "reason": "Tart\u0131\u015fma", "req": "Yok", "source": "http://siyasihaber3.org/kadin-cinayeti-bir-erkek-esinin-basina-baltayla-vurarak-oldurdu", "type": "boundary", "who": "Kocas\u0131", "year": 2018}, "type": "Feature"}, {"geometry": {"coordinates": [29.119921, 37.739144], "type": "Point"}, "properties": {"city": "Denizli", "date": "20/03/2018", "death": "Bo\u011fma, Tecav\u00fcz, Darp", "name": "Yryskul Zheenbek Kyzy", "reason": "Tecav\u00fcz", "req": "Yok", "source": "http://www.hurriyet.com.tr/gundem/dehset-kacirdi-tecavuz-etti-oldurdu-ezdi-40778705", "type": "boundary", "who": "Tan\u0131mad\u0131\u011f\u0131\u00a0Birisi", "year": 2018}, "type": "Feature"}, {"geometry": {"coordinates": [29.010602, 40.212398], "type": "Point"}, "properties": {"city": "Bursa", "date": "24/03/2018", "death": "Ate\u015fli Silah", "name": "Merve Pekdemir", "reason": "Tart\u0131\u015fms", "req": "Yok", "source": "http://www.milliyet.com.tr/5-aylik-bebegi-icin-yasatiliyordu--gundem-2633832/", "type": "boundary", "who": "Sevgilisi", "year": 2018}, "type": "Feature"}, {"geometry": {"coordinates": [36.915087, 37.547782], "type": "Point"}, "properties": {"city": "Kahramanmara\u015f", "date": "28/03/2018", "death": "Ate\u015fli Silah", "name": "G\u00fcl G\u00fclizar", "reason": "Bilinmiyor", "req": "Yok", "source": "http://www.milliyet.com.tr/22-gun-sonra-cesedi-bulundu-gundem-2635964/", "type": "boundary", "who": "Kocas\u0131", "year": 2018}, "type": "Feature"}, {"geometry": {"coordinates": [32.81389, 39.963132], "type": "Point"}, "properties": {"city": "Ankara", "date": "29/03/2018", "death": "Darp", "name": "Alara Karademir", "reason": "Tart\u0131\u015fma", "req": "Yok", "source": "http://m.ilerihaber.org/icerik/yogun-bakimdaki-alara-karademir-hayatini-kaybetti-83550.htmlhttp://t24.com.tr/haber/alaranin-anneannesi-intihar-degil-kesinlikle-cinayet-konustuk-beni-diploma-torenine-cagirdi,595580", "type": "boundary", "who": "Tan\u0131d\u0131\u011f\u0131 Birisi", "year": 2018}, "type": "Feature"}, {"geometry": {"coordinates": [29.012604, 40.196382], "type": "Point"}, "properties": {"city": "Bursa", "date": "05/05/2018", "death": "Kesici Alet", "name": "\u00c7i\u011fdem Alpaslan", "reason": "Tart\u0131\u015fma", "req": "Yok", "source": "http://www.milliyet.com.tr/cezaevinden-izinli-cikti-esini-gundem-2663019/", "type": "boundary", "who": "Kocas\u0131", "year": 2018}, "type": "Feature"}, {"geometry": {"coordinates": [28.992725, 41.016666], "type": "Point"}, "properties": {"city": "\u0130stanbul", "date": "04/05/2018", "death": "Ate\u015fli Silah", "name": "Nurhan Do\u011fan", "reason": "Reddedilme", "req": "Yok", "source": "http://www.milliyet.com.tr/zeytinburnu-nda-dehset-genc-kizi-gundem-2662282/", "type": "boundary", "who": "Eski Sevgilisi", "year": 2018}, "type": "Feature"}, {"geometry": {"coordinates": [27.129858, 38.431195], "type": "Point"}, "properties": {"city": "\u0130zmir", "date": "04/05/2018", "death": "Ate\u015fli Silah", "name": "Vicdan \u00d6zet\u00e7i", "reason": "Reddedilme", "req": "Yok", "source": "http://www.milliyet.com.tr/balkondan-girdigi-evde-cinayet-gundem-2662011/", "type": "boundary", "who": "Tan\u0131d\u0131\u011f\u0131 Birisi", "year": 2018}, "type": "Feature"}, {"geometry": {"coordinates": [27.847161, 39.667452], "type": "Point"}, "properties": {"city": "Bal\u0131kesir", "date": "03/05/2018", "death": "Ate\u015fli Silah", "name": "Zeynep \u00c7eliksoy", "reason": "Annesinin eski sevgilisini reddetmesi", "req": "Yok", "source": "http://www.milliyet.com.tr/cani-pismanim-dedi--gundem-2661220/", "type": "boundary", "who": "Annesinin Eski Sevgilisi", "year": 2018}, "type": "Feature"}, {"geometry": {"coordinates": [34.651627, 37.943119], "type": "Point"}, "properties": {"city": "Ni\u011fde", "date": "02/04/2018", "death": "Ate\u015fli Silah", "name": "Sibel Y\u0131k\u0131lmaz", "reason": "Reddedilme", "req": "Yok", "source": "http://www.milliyet.com.tr/esini-oldurup-kayinvalidesini-gundem-2659139/", "type": "boundary", "who": "Kocas\u0131", "year": 2018}, "type": "Feature"}, {"geometry": {"coordinates": [34.945844, 40.504204], "type": "Point"}, "properties": {"city": "\u00c7orum", "date": "30/04/2018", "death": "Darp", "name": "Hanife B.", "reason": "Tart\u0131\u015ft\u0131", "req": "Yok", "source": "http://www.milliyet.com.tr/cinnet-getiren-koca-esini-cekicle-gundem-2659067/", "type": "boundary", "who": "Kocas\u0131", "year": 2018}, "type": "Feature"}, {"geometry": {"coordinates": [27.39736, 38.608916], "type": "Point"}, "properties": {"city": "Manisa", "date": "28/04/2018", "death": "Ate\u015fli Silah", "name": "Zeynep Kaya", "reason": "Tart\u0131\u015ft\u0131", "req": "Yok", "source": "http://www.milliyet.com.tr/kari-kocaya-sokak-ortasinda-kanli-gundem-2657908/", "type": "boundary", "who": "Bilinmiyor", "year": 2018}, "type": "Feature"}, {"geometry": {"coordinates": [28.983716, 41.04069], "type": "Point"}, "properties": {"city": "\u0130stanbul", "date": "28/04/2018", "death": "Ate\u015fli Silah", "name": "Z\u00fcbeyde K.", "reason": "Bilinmiyor", "req": "Yok", "source": "http://www.milliyet.com.tr/gungoren-de-dehset-sacan-kisi-gundem-2657729/", "type": "boundary", "who": "Kocas\u0131", "year": 2018}, "type": "Feature"}, {"geometry": {"coordinates": [28.949682, 41.066716], "type": "Point"}, "properties": {"city": "\u0130stanbul", "date": "28/04/2018", "death": "Ate\u015fli Silah", "name": "\u0130mren Kandemir", "reason": "Bilinmiyor", "req": "Yok", "source": "http://www.milliyet.com.tr/ozel-harekatci-eski-koca-tutuklandi-gundem-2657604/", "type": "boundary", "who": "Eski Kocas\u0131", "year": 2018}, "type": "Feature"}, {"geometry": {"coordinates": [29.015748, 41.109759], "type": "Point"}, "properties": {"city": "\u0130stanbul", "date": "27/04/2018", "death": "Ate\u015fli Silah", "name": "Dilek Y\u0131ld\u0131z", "reason": "Tart\u0131\u015fma", "req": "Yok", "source": "http://www.milliyet.com.tr/umraniye-de-dehset-esini-vurup-gundem-2657142/", "type": "boundary", "who": "Eski Kocas\u0131", "year": 2018}, "type": "Feature"}, {"geometry": {"coordinates": [29.101197, 36.624968], "type": "Point"}, "properties": {"city": "Fethiye", "date": "27/04/2018", "death": "Darp", "name": "Sevil Bekta\u015f", "reason": "Bilinmiyor", "req": "Yok", "source": "http://www.milliyet.com.tr/1-ay-once-evlendigi-karisini-gundem-2657014/", "type": "boundary", "who": "Kocas\u0131", "year": 2018}, "type": "Feature"}, {"geometry": {"coordinates": [29.966587, 40.816461], "type": "Point"}, "properties": {"city": "Kocaeli", "date": "05.01.2018", "death": "Bo\u011fulma", "name": "Ecem Balc\u0131", "reason": "Belirtilmemi\u015f", "req": "Yok", "source": "http://www.milliyet.com.tr/ecem-i-oldurup-gomen-katil-zanlisi-gundem-2612880/http://www.hurriyet.com.tr/gundem/ecem-balci-cinayetinde-adli-tipin-raporu-aciklandi-bogularak-oldurulmus-sonra-gomulmus-41338201", "type": "boundary", "who": "Tan\u0131d\u0131\u011f\u0131 Birisi", "year": 2018}, "type": "Feature"}, {"geometry": {"coordinates": [27.184913, 38.454218], "type": "Point"}, "properties": {"city": "\u0130zmir", "date": "14/03/2018", "death": "Ate\u015fli Silah", "name": "M\u00fczeyyen La\u00e7in", "reason": "Bilinmiyor", "req": "Yok", "source": "http://www.milliyet.com.tr/izmir-de-bir-kadin-evinde-olu-gundem-2627303/", "type": "boundary", "who": "Sevgilisi", "year": 2018}, "type": "Feature"}, {"geometry": {"coordinates": [27.4374, 38.651959], "type": "Point"}, "properties": {"city": "Manisa", "date": "27/04/2018", "death": "Ate\u015fli Silah", "name": "Deniz Ari\u00e7", "reason": "Namus", "req": "Yok", "source": "http://www.milliyet.com.tr/manisa-daki-cifte-cinayet-zanlisi-gundem-2655719/", "type": "boundary", "who": "Kocas\u0131", "year": 2018}, "type": "Feature"}, {"geometry": {"coordinates": [29.043845, 37.793198], "type": "Point"}, "properties": {"city": "Denizli", "date": "18/04/2018", "death": "Darp", "name": "T\u00fcrkay \u0130seyeva", "reason": "Bilinmiyor", "req": "Yok", "source": "http://www.milliyet.com.tr/turkay-iseyeva-nin-yakinlari-gundem-2655147/", "type": "boundary", "who": "Sevgilisi", "year": 2018}, "type": "Feature"}, {"geometry": {"coordinates": [40.732335, 37.370014], "type": "Point"}, "properties": {"city": "Mardin", "date": "24/04/2018", "death": "Bilinmiyor", "name": "\u0130smi Bilinmiyor", "reason": "Bilinmiyor", "req": "Bilinmiyor", "source": "http://www.milliyet.com.tr/genc-kadinin-cesedini-coban-buldu-gundem-2654778/", "type": "boundary", "who": "Bilinmiyor", "year": 2018}, "type": "Feature"}, {"geometry": {"coordinates": [35.351987, 36.942617], "type": "Point"}, "properties": {"city": "Adana", "date": "22/04/2018", "death": "Bo\u011fma", "name": "Elif Tul", "reason": "Para", "req": "Yok", "source": "http://www.milliyet.com.tr/polisin-supheli-olum-taktigi-gundem-2653312/", "type": "boundary", "who": "Torunu", "year": 2018}, "type": "Feature"}, {"geometry": {"coordinates": [28.331849, 37.238653], "type": "Point"}, "properties": {"city": "Mu\u011fla", "date": "18/10/2018", "death": "Tespit Edilemeyen", "name": "Duru Akar", "reason": "Tespit Edllmeyen", "req": "Yok", "source": "http://www.milliyet.com.tr/dehset-esini-4-metre-otede-bu-gundem-2761499/", "type": "boundary", "who": "Tespit Edilemeyen", "year": 2018}, "type": "Feature"}, {"geometry": {"coordinates": [40.201691, 37.893419], "type": "Point"}, "properties": {"city": "Diyarbak\u0131r", "date": "19/10/2018", "death": "Ate\u015fli Silah", "name": "Gurbet Damar", "reason": "Tespit Edilemeyen", "req": "Yok", "source": "http://www.hurriyet.com.tr/gundem/gorme-engelli-milli-atlet-soyunma-odasinda-olu-bulundu-40992402", "type": "boundary", "who": "Tespit Edilemeyen", "year": 2018}, "type": "Feature"}, {"geometry": {"coordinates": [27.144873, 38.389153], "type": "Point"}, "properties": {"city": "\u0130zmir", "date": "22/10/2018", "death": "Kesici Alet", "name": "Havva \u00c7ay", "reason": "Tespit Edilemeyen", "req": "Yok", "source": "http://www.hurriyet.com.tr/gundem/eve-giren-baba-dehsete-dustu-iki-yil-sonra-ayni-", "type": "boundary", "who": "Tespit Edilemeyen", "year": 2018}, "type": "Feature"}, {"geometry": {"coordinates": [28.981714, 41.042692], "type": "Point"}, "properties": {"city": "\u0130stanbul", "date": "30/10/2018", "death": "Tespit Edilemeyen", "name": "Nazmiye Oru\u00e7o\u011flu", "reason": "Tespit Edilemeyen", "req": "Yok", "source": "http://www.hurriyet.com.tr/gundem/gayrimenkul-zengini-kadina-olum-tuzagi-41002397", "type": "boundary", "who": "Tespit Edilemeyen", "year": 2018}, "type": "Feature"}, {"geometry": {"coordinates": [32.498741, 37.889909], "type": "Point"}, "properties": {"city": "Konya", "date": "01/11/2018", "death": "Ate\u015fli Silah", "name": "Hanife Babayi\u011fit", "reason": "K\u0131skan\u00e7l\u0131k", "req": "Yok", "source": "http://www.hurriyet.com.tr/gundem/bir-yillik-esini-tufekle-oldurdu-sozleri-soke-etti-41004931", "type": "boundary", "who": "Kocas\u0131", "year": 2018}, "type": "Feature"}, {"geometry": {"coordinates": [39.699974, 41.024548], "type": "Point"}, "properties": {"city": "Trabzon", "date": "03/10/2018", "death": "Tespit Edilemeyen", "name": "Emine Bayraktar", "reason": "Tespit Edilemeyen", "req": "Yok", "source": "https://www.haberturk.com/trabzon-haberleri/63747532-denizde-cesedi-bulunan-kadinin-kimligi-belirlendi", "type": "boundary", "who": "Tespit Edilemeyen", "year": 2018}, "type": "Feature"}, {"geometry": {"coordinates": [29.018751, 41.051701], "type": "Point"}, "properties": {"city": "\u0130stanbul", "date": "04/10/2018", "death": "Kesici Alet", "name": "\u0130kram D.", "reason": "K\u0131skan\u00e7l\u0131k", "req": "Yok", "source": "http://www.gazetevatan.com/satirla-karisini-oldurdu-1206257-yasam/", "type": "boundary", "who": "Kocas\u0131", "year": 2018}, "type": "Feature"}, {"geometry": {"coordinates": [35.335971, 36.941616], "type": "Point"}, "properties": {"city": "Adana", "date": "04/10/2018", "death": "Tespit Edilemeyen", "name": "Ay\u015fe T\u0131rpan", "reason": "Tespit Edilemeyen", "req": "Yok", "source": "https://www.haberler.com/kayip-kadinin-cesedi-bulundu-2-11298418-haberi/", "type": "boundary", "who": "Tespit Edilemeyen", "year": 2018}, "type": "Feature"}, {"geometry": {"coordinates": [37.413198, 37.029487], "type": "Point"}, "properties": {"city": "Gaziantep", "date": "06/10/2018", "death": "Ate\u015fli Silah", "name": "\u00d6zlem U.", "reason": "Tart\u015fma", "req": "Yok", "source": "http://www.hurriyet.com.tr/gundem/karisini-oldurdu-jandarmayi-aradi-40978627", "type": "boundary", "who": "Kocas\u0131", "year": 2018}, "type": "Feature"}, {"geometry": {"coordinates": [44.022572, 39.915286], "type": "Point"}, "properties": {"city": "I\u011fd\u0131r", "date": "07/10/2018", "death": "Ate\u015fli Silah", "name": "Filiz \u015e.", "reason": "Namus", "req": "Yok", "source": "https://www.haberra.com/koca-dehsetinden-kacarken-kardesine-yakalandi/59250", "type": "boundary", "who": "Erkek Karde\u015fi", "year": 2018}, "type": "Feature"}, {"geometry": {"coordinates": [30.685216, 36.86895], "type": "Point"}, "properties": {"city": "Antalya", "date": "09/10/2018", "death": "Ate\u015fli Silah", "name": "Ziynet Terzi", "reason": "Reddedilme", "req": "Yok", "source": "https://www.yenialanya.com/asayis/antalya-daki-kadin-cinayetinin-zanlisi-yakalandi-h340368.html", "type": "boundary", "who": "Sevgilisi", "year": 2018}, "type": "Feature"}, {"geometry": {"coordinates": [27.470015, 40.953615], "type": "Point"}, "properties": {"city": "Tekirda\u011f", "date": "11/10/2018", "death": "Kesici Alet", "name": "\u015eeyda A.", "reason": "Bo\u015fanma Talebi", "req": "Yok", "source": "http://www.marmaragazetesi.com/koca-vahseti-323460h.htm", "type": "boundary", "who": "Kocas\u0131", "year": 2018}, "type": "Feature"}, {"geometry": {"coordinates": [40.236726, 37.962488], "type": "Point"}, "properties": {"city": "Diyarbak\u0131r", "date": "11/10/2018", "death": "Bo\u011fma", "name": "Nihal \u00c7.", "reason": "Tart\u0131\u015fma ", "req": "Yok", "source": "http://www.milliyet.com.tr/diyarbakir-da-kan-donduran-kadin-gundem-2758423/", "type": "boundary", "who": "Kocas\u0131", "year": 2018}, "type": "Feature"}, {"geometry": {"coordinates": [29.029831, 37.739144], "type": "Point"}, "properties": {"city": "Denizli ", "date": "14/10/2018", "death": "Kesici Alet", "name": "Hamide \u00c7avdar", "reason": "Tart\u015fma", "req": "Yok", "source": "https://www.haberturk.com/denizli-haberleri/16632323-denizlide-engelli-kadinin-evinin-balkonunda-oldurulmesi", "type": "boundary", "who": "Tan\u0131d\u0131\u011f\u0131 Birileri", "year": 2018}, "type": "Feature"}, {"geometry": {"coordinates": [29.01775, 41.016666], "type": "Point"}, "properties": {"city": "\u0130stanbul", "date": "19/10/2018", "death": "Kesici Alet", "name": "Media Hasan", "reason": "Tart\u0131\u015fma", "req": "Yok", "source": "https://www.ntv.com.tr/turkiye/istanbularnavutkoyde-vahset-karisinive-ikicocugunu-oldurdu,o5ZDJzQg6Ue0cjOwNcCTMA", "type": "boundary", "who": "Kocas\u0131", "year": 2018}, "type": "Feature"}, {"geometry": {"coordinates": [29.376797, 38.717868], "type": "Point"}, "properties": {"city": "U\u015fak", "date": "23/10/2018", "death": "Tespit Edilemeyen", "name": "Dilek Marabi", "reason": "Tespit Edilemeyen", "req": "Yok ", "source": "https://www.haberler.com/olen-kadini-koliye-koyup-ormana-attirdi-11359136-haberi/", "type": "boundary", "who": "Tan\u0131d\u0131\u011f\u0131 Birisi", "year": 2018}, "type": "Feature"}, {"geometry": {"coordinates": [27.48503, 40.979641], "type": "Point"}, "properties": {"city": "Tekirda\u011f", "date": "29/10/2018", "death": "D\u00fc\u015fme", "name": "Sultan Ero\u011flu", "reason": "Tespit Edilemeyen", "req": "Yok", "source": "https://www.haberturk.com/tekirdag-da-apartmanin-5-katindan-dusen-kadin-oldu-2197837", "type": "boundary", "who": "Tespit Edilemeyen", "year": 2018}, "type": "Feature"}, {"geometry": {"coordinates": [27.410373, 38.627935], "type": "Point"}, "properties": {"city": "Manisa", "date": "29/10/2018", "death": "Ate\u015fli Silah", "name": "Ay\u015fe \u00d6zcan", "reason": "Tart\u0131\u015fma", "req": "Yok", "source": "http://www.cumhuriyet.com.tr/haber/turkiye/1125623/Kadin_cinayeti__Eski_esini_pompali_tufekle_oldurdu.html", "type": "boundary", "who": "Eski Kocas\u0131", "year": 2018}, "type": "Feature"}, {"geometry": {"coordinates": [32.806883, 39.966135], "type": "Point"}, "properties": {"city": "Ankara", "date": "28/10/2018", "death": "Kesici Alet", "name": "Elmas Demir", "reason": "Reddedilme", "req": "Yok", "source": "https://www.takvim.com.tr/guncel/2018/10/28/barisma-istegini-kabul-etmeyen-esini-bicaklayarak-oldurdu", "type": "boundary", "who": "Kocas\u0131", "year": 2018}, "type": "Feature"}, {"geometry": {"coordinates": [29.008741, 41.057707], "type": "Point"}, "properties": {"city": "\u0130stanbul", "date": "25/10/2018", "death": "Kesici Alet", "name": "Fatma G\u00fcraslan", "reason": "K\u0131skan\u00e7l\u0131k", "req": "Yok", "source": "https://www.sabah.com.tr/yasam/2018/10/25/istanbulda-vahset-2-hafta-once-evlendigi-karisinin-bogazini-kesti", "type": "boundary", "who": "Kocas\u0131", "year": 2018}, "type": "Feature"}, {"geometry": {"coordinates": [29.930551, 40.734379], "type": "Point"}, "properties": {"city": "Kocaeli", "date": "25/10/2018", "death": "Kesici Alet", "name": "Nana Gokhldze", "reason": "Tart\u0131\u015fma", "req": "Yok", "source": "https://www.sabah.com.tr/yasam/2018/10/25/uvey-annesinin-olduren-genc-dere-icerisinde-saklanirken-yakalandi", "type": "boundary", "who": "\u00dcvey O\u011flu", "year": 2018}, "type": "Feature"}, {"geometry": {"coordinates": [29.106698, 40.191377], "type": "Point"}, "properties": {"city": "Bursa", "date": "26/10/2018", "death": "Kesici Alet", "name": "\u00d6zlem Me\u015feli", "reason": "Tart\u0131\u015fma", "req": "Yok", "source": "https://tr.sputniknews.com/turkiye/201810261035849161-eski-karisini-on-sekiz-yerinden-bicaklayarak-oldurdu/", "type": "boundary", "who": "Eski Kocas\u0131", "year": 2018}, "type": "Feature"}, {"geometry": {"coordinates": [35.449476, 38.684884], "type": "Point"}, "properties": {"city": "Kayseri", "date": "23/10/2018", "death": "Ate\u015fli Silah", "name": "Turna G\u00fcl \u00c7.", "reason": "Bo\u015fanma Talebi", "req": "Var", "source": "http://www.konhaber.com/haber-guncelleme_bosanma_asamasindaki_karisini_oldurdu-910765.html", "type": "boundary", "who": "Kocas\u0131", "year": 2018}, "type": "Feature"}, {"geometry": {"coordinates": [30.494698, 39.793681], "type": "Point"}, "properties": {"city": "Eski\u015fehir", "date": "21/10/2018", "death": "Ate\u015fli Silah", "name": "Suna Yaz\u0131c\u0131o\u011flu", "reason": "Husumet", "req": "Yok", "source": "http://www.milliyet.com.tr/taseron-firmanin-sahibi-gundem-2763910/", "type": "boundary", "who": "Tan\u0131d\u0131\u011f\u0131 Birisi", "year": 2018}, "type": "Feature"}, {"geometry": {"coordinates": [29.026759, 41.035685], "type": "Point"}, "properties": {"city": "\u0130stanbul", "date": "21/10/2018", "death": "D\u00fc\u015fme", "name": "Oumaima Waguaf", "reason": "Tespit Edilemeyen", "req": "Yok", "source": "http://www.karar.com/guncel-haberler/sislide-apartmandan-dusen-kadin-oldu-1005599#", "type": "boundary", "who": "Tespit Edilemeyen", "year": 2018}, "type": "Feature"}, {"geometry": {"coordinates": [30.579231, 38.719912], "type": "Point"}, "properties": {"city": "Afyonkarahisar", "date": "21/10/2018", "death": "Kesici Alet", "name": "\u015eevval S.", "reason": "K\u0131skan\u00e7l\u0131k", "req": "Yok", "source": "http://www.hurriyet.com.tr/gundem/evlenmek-uzere-oldugu-kadini-baska-biriyle-goren-adam-cinnet-getirdi-40993992", "type": "boundary", "who": "Sevgilisi", "year": 2018}, "type": "Feature"}, {"geometry": {"coordinates": [28.990723, 41.073723], "type": "Point"}, "properties": {"city": "\u0130stanbul", "date": "31/10/2018", "death": "D\u00fc\u015fme", "name": "Berfin Atmaca", "reason": "Tespit Edilemeyen", "req": "Yok", "source": "http://www.hurriyet.com.tr/yerel-haberler/istanbul/beyoglu/beyoglunda-5inci-kattan-dusen-kadin-oldu-41004499", "type": "boundary", "who": "Tespit Edilemeyen", "year": 2018}, "type": "Feature"}, {"geometry": {"coordinates": [36.575905, 40.294931], "type": "Point"}, "properties": {"city": "Tokat", "date": "31/10/2018", "death": "Tespit Edilmeyen", "name": "Emine Ta\u015ftan", "reason": "Tespit Edilemeyen", "req": "Yok", "source": "http://www.hurriyet.com.tr/gundem/tokatta-parcalanmis-kadin-cesedi-bulundu-41003955", "type": "boundary", "who": "Tespit Edilemeyen", "year": 2018}, "type": "Feature"}, {"geometry": {"coordinates": [37.401186, 37.043501], "type": "Point"}, "properties": {"city": "Gaziantep", "date": "13/11/2018", "death": "Ate\u015fli Silah", "name": "Sabiha Sebil", "reason": "Tart\u0131\u015fma", "req": "Yok", "source": "http://www.milliyet.com.tr/oynamak-istemeyen-karisini-pompali-gundem-2777117/", "type": "boundary", "who": "Sevgilisi", "year": 2018}, "type": "Feature"}, {"geometry": {"coordinates": [29.02776, 41.08073], "type": "Point"}, "properties": {"city": "\u0130stanbul", "date": "16/11/2018", "death": "Bo\u011fma", "name": "Nadime Tigis", "reason": "Tart\u0131\u015fma", "req": "Yok", "source": "http://www.milliyet.com.tr/esarp-cinayeti-urkuten-ifadeler--gundem-2779065/", "type": "boundary", "who": "Sevgilisi", "year": 2018}, "type": "Feature"}, {"geometry": {"coordinates": [26.375451, 40.175607], "type": "Point"}, "properties": {"city": "\u00c7anakkale", "date": "20/11/2018", "death": "Ate\u015fli Silah", "name": "Sedef \u015een", "reason": "Bo\u015fanma Talebi", "req": "Var", "source": "http://www.milliyet.com.tr/karisini-durakta-servis-beklerken-gundem-2781070/", "type": "boundary", "who": "Kocas\u0131", "year": 2018}, "type": "Feature"}, {"geometry": {"coordinates": [29.062654, 40.230416], "type": "Point"}, "properties": {"city": "Bursa", "date": "22/11/2018", "death": "Ate\u015fli Silah", "name": "G\u00fcnay Torun", "reason": "Tespit Edilemeyen", "req": "Yok", "source": "http://www.hurriyet.com.tr/gundem/bursada-otomobilde-infaz-kursun-yagdirdilar-41027171", "type": "boundary", "who": "Tespit Edilemeyen", "year": 2018}, "type": "Feature"}, {"geometry": {"coordinates": [32.902979, 39.94111], "type": "Point"}, "properties": {"city": "Ankara", "date": "29/11/2018", "death": "Ate\u015fli Silah", "name": "Emine \u00c7ak\u0131r", "reason": "Tart\u0131\u015fma", "req": "Yok", "source": "http://www.milliyet.com.tr/ankara-da-vahset-ozel-harekat-gundem-2786356/", "type": "boundary", "who": "Sevgilisi", "year": 2018}, "type": "Feature"}, {"geometry": {"coordinates": [36.386389, 41.282041], "type": "Point"}, "properties": {"city": "Samsun", "date": "02/12/2018", "death": "Kesici Alet", "name": "Merve \u00d6zcan", "reason": "Tart\u0131\u015fma", "req": "Yok", "source": "http://www.milliyet.com.tr/hastane-otoparkinda-dehset-19-gundem-2788123/", "type": "boundary", "who": "Eski Kocas\u0131", "year": 2018}, "type": "Feature"}, {"geometry": {"coordinates": [34.598114, 36.76985], "type": "Point"}, "properties": {"city": "Mersin", "date": "02/12/2018", "death": "Tespit Edilemeyen", "name": "Cemile E.", "reason": "Tespit Edilemeyen", "req": "Yok", "source": "http://www.milliyet.com.tr/kayip-ihbarinda-bulundu-kan-gundem-2788025/", "type": "boundary", "who": "Kocas\u0131", "year": 2018}, "type": "Feature"}, {"geometry": {"coordinates": [36.214866, 37.0826], "type": "Point"}, "properties": {"city": "Osmaniye", "date": "09/12/2018", "death": "Ate\u015fli Silah", "name": "H\u00fcr\u00fc E.", "reason": "Tart\u0131\u015fma", "req": "Var", "source": "http://www.milliyet.com.tr/o-ilimizde-dehset-karisi-ve-4-gundem-2792337/", "type": "boundary", "who": "Kocas\u0131", "year": 2018}, "type": "Feature"}, {"geometry": {"coordinates": [29.06866, 40.17436], "type": "Point"}, "properties": {"city": "Bursa", "date": "09/12/2018", "death": "Kesici Alet", "name": "Fatma K.", "reason": "Tart\u0131\u015fma", "req": "Yok", "source": "http://www.milliyet.com.tr/bursa-da-dehset-80-yasindaki-adam-gundem-2792286/", "type": "boundary", "who": "Kocas\u0131", "year": 2018}, "type": "Feature"}, {"geometry": {"coordinates": [32.829906, 39.904073], "type": "Point"}, "properties": {"city": "Ankara", "date": "09/12/2018", "death": "Ate\u015fli Silah", "name": "Mehtap Er", "reason": "Bo\u015fanma Talebi", "req": "Var (Evden uzakla\u015ft\u0131rma)", "source": "http://www.milliyet.com.tr/oldurdugu-esine-mezar-kazip-gundem-2792275/", "type": "boundary", "who": "Kocas\u0131", "year": 2018}, "type": "Feature"}, {"geometry": {"coordinates": [32.880957, 39.948117], "type": "Point"}, "properties": {"city": "Ankara", "date": "09/12/2018", "death": "Ate\u015fli Silah", "name": "Muazzez K\u0131nay", "reason": "K\u0131z\u0131n\u0131 Korurken", "req": "Yok", "source": "http://www.milliyet.com.tr/oldurdugu-esine-mezar-kazip-gundem-2792275/", "type": "boundary", "who": "Damad\u0131", "year": 2018}, "type": "Feature"}, {"geometry": {"coordinates": [32.015121, 36.508155], "type": "Point"}, "properties": {"city": "Alanya", "date": "09/12/2018", "death": "Kesici Alet", "name": "Fatma Nebahat \u0130yiyol", "reason": "Tespit Edilemeyen", "req": "Yok", "source": "http://www.milliyet.com.tr/alanya-da-korkunc-cinayet--gundem-2792244/", "type": "boundary", "who": "O\u011flu", "year": 2018}, "type": "Feature"}, {"geometry": {"coordinates": [30.730261, 36.901983], "type": "Point"}, "properties": {"city": "Antalya", "date": "04/03/2018", "death": "Belirtilmemi\u015f", "name": "Dilara Kandak", "reason": "Bilinmiyor", "req": "Yok", "source": "http://www.bursahakimiyet.com.tr/haber/genc-kadin-vahsice-olduruldu-218528.htmlhttp://www.milliyet.com.tr/cinayet-zanlisi-eski-kocadan-sok-gundem-2777793/", "type": "boundary", "who": "Eski Kocas\u0131", "year": 2018}, "type": "Feature"}, {"geometry": {"coordinates": [29.02776, 41.034684], "type": "Point"}, "properties": {"city": "\u0130stanbul", "date": "05/03/2018", "death": "Ate\u015fli Silah", "name": "Muradiye Bekta\u015f", "reason": "Reddedilme", "req": "Yok", "source": "https://www.haberler.com/esenyurt-belediyesi-nde-islenen-cinayetin-10625708-haberi/", "type": "boundary", "who": "Sevgilisi", "year": 2018}, "type": "Feature"}, {"geometry": {"coordinates": [30.347027, 40.821335], "type": "Point"}, "properties": {"city": "Sakarya", "date": "03/03/2018", "death": "Tespit Edilemeyen", "name": "H\u00fcmeyra A.", "reason": "Tespit Edilemeyen", "req": "Yok", "source": "http://beyazgazete.com/haber/2018/3/3/akyazi-da-bir-kadin-evinde-olu-bulundu-4360342.html", "type": "boundary", "who": "Tespit Edilemeyen", "year": 2018}, "type": "Feature"}, {"geometry": {"coordinates": [32.830907, 39.942111], "type": "Point"}, "properties": {"city": "Ankara", "date": "08/03/2018", "death": "Ate\u015fli Silah", "name": "Ayten G\u00fcl\u00e7\u0131nar", "reason": "Miras", "req": "Var", "source": "https://www.sabah.com.tr/yasam/2018/03/08/kadin-halk-ozani-olduruldu", "type": "boundary", "who": "Sevgilisinin O\u011flu", "year": 2018}, "type": "Feature"}, {"geometry": {"coordinates": [29.011744, 41.092742], "type": "Point"}, "properties": {"city": "\u0130stanbul", "date": "08/03/2018", "death": "Darp", "name": "\u0130smi Bilinmiyor", "reason": "Nefret Cinayeti", "req": "Yok", "source": "http://haber.sol.org.tr/toplum/iran-uyruklu-trans-kadin-olduruldu-230813", "type": "boundary", "who": "Bilinmiyor", "year": 2018}, "type": "Feature"}, {"geometry": {"coordinates": [31.163182, 40.859848], "type": "Point"}, "properties": {"city": "D\u00fczce", "date": "10/03/2018", "death": "Tespit Edilemeyen", "name": "Nazike B.", "reason": "Tespit Edilemeyen", "req": "Yok", "source": "http://www.karar.com/guncel-haberler/62-yasindaki-kadin-evinde-olu-bulundu-780581#", "type": "boundary", "who": "Tespit Edilemeyen", "year": 2018}, "type": "Feature"}, {"geometry": {"coordinates": [35.341977, 36.996671], "type": "Point"}, "properties": {"city": "Adana", "date": "11/03/2018", "death": "Darp", "name": "Zeynep Mahruk", "reason": "Tespit Edilemeyen", "req": "Yok", "source": "https://www.sondakika.com/haber/haber-15-yasinda-evlendi-3-bebegi-karninda-oldu-1-i-10644750/", "type": "boundary", "who": "Tan\u0131mad\u0131\u011f\u0131 Birisi", "year": 2018}, "type": "Feature"}, {"geometry": {"coordinates": [37.873965, 40.960675], "type": "Point"}, "properties": {"city": "Ordu", "date": "11/03/2018", "death": "Ate\u015fli Silah", "name": "Lale Yan\u0131k", "reason": "Tart\u0131\u015fma", "req": "Yok", "source": "https://www.yeniakit.com.tr/haber/5-cocuk-annesi-kadin-eski-esi-tarafindan-olduruldu-434376.html", "type": "boundary", "who": "Eski Kocas\u0131", "year": 2018}, "type": "Feature"}, {"geometry": {"coordinates": [32.858935, 39.925094], "type": "Point"}, "properties": {"city": "Ankara", "date": "11/03/2018", "death": "Kesici Alet", "name": "\u0130lknur \u00c7.", "reason": "Tart\u0131\u015fma", "req": "Yok", "source": "http://www.cumhuriyet.com.tr/haber/turkiye/940937/Cezaevinden_izinli_cikip__4_yasindaki_kizinin_gozleri_onunde_esini_oldurdu.html", "type": "boundary", "who": "Kocas\u0131", "year": 2018}, "type": "Feature"}, {"geometry": {"coordinates": [31.966072, 36.515162], "type": "Point"}, "properties": {"city": "Alanya", "date": "12/03/2018", "death": "Ate\u015fli Silah", "name": "Zehra Y\u0131lmaz", "reason": "Tart\u0131\u015fma", "req": "Var", "source": "https://www.ntv.com.tr/kadina-siddet/antalyada-kadin-cinayeti-tartistigi-esini-oldurdu,arCRDqCIikyIKpqf-9eTVA", "type": "boundary", "who": "Kocas\u0131", "year": 2018}, "type": "Feature"}, {"geometry": {"coordinates": [27.173902, 38.447211], "type": "Point"}, "properties": {"city": "\u0130zmir", "date": "13/03/2018", "death": "Ate\u015fli Silah", "name": "M\u00fczeyyen Yal\u00e7\u0131n", "reason": "Tespit Edilemeyen", "req": "Yok", "source": "http://www.memleket.com.tr/izmirde-bir-kadin-evinde-olu-bulundu-1348506h.htm", "type": "boundary", "who": "Tespit Edilemeyen", "year": 2018}, "type": "Feature"}, {"geometry": {"coordinates": [37.055268, 39.749339], "type": "Point"}, "properties": {"city": "Sivas", "date": "22/03/2018", "death": "Ate\u015fli Silah", "name": "Cennet Esen", "reason": "K\u0131z\u0131n\u0131 Korurken", "req": "Var", "source": "https://www.haberler.com/sivas-canisi-kahramanmaras-ta-yakalandi-10680889-haberi/", "type": "boundary", "who": "Tan\u0131d\u0131\u011f\u0131\u00a0Birisi", "year": 2018}, "type": "Feature"}, {"geometry": {"coordinates": [34.158354, 39.172074], "type": "Point"}, "properties": {"city": "K\u0131r\u015fehir", "date": "12/03/2018", "death": "Tespite Edilemeyen", "name": "Hatice Ba\u015far\u0131r", "reason": "Tespit Edilemeyen", "req": "Yok", "source": "http://www.memleket.com.tr/kamanda-bir-kadin-evinde-olu-bulundu-1347091h.htm", "type": "boundary", "who": "Tespit Edilemeyen", "year": 2018}, "type": "Feature"}, {"geometry": {"coordinates": [35.456483, 38.685885], "type": "Point"}, "properties": {"city": "Kayseri", "date": "16/03/2018", "death": "Tespit Edilemeyen", "name": "Mahive Karaman", "reason": "Tespit Edilemeyen", "req": "Yok", "source": "http://www.kayseriolay.com/yasli-kadin-evinde-olu-bulundu-h28367.htm", "type": "boundary", "who": "Tespit Edilemeyen", "year": 2018}, "type": "Feature"}, {"geometry": {"coordinates": [36.380383, 41.292051], "type": "Point"}, "properties": {"city": "Samsun", "date": "16/03/2018", "death": "Tespit Edilemeyen", "name": "\u0130smi Bilinmiyor", "reason": "Tespit Edilemeyen", "req": "Tespit Edilemeyen", "source": "https://www.yenisafak.com/gundem/samsunda-sahilde-korkunc-goruntu-cop-poseti-icinde-bulundu-3178485", "type": "boundary", "who": "Tespit Edilemeyen", "year": 2018}, "type": "Feature"}, {"geometry": {"coordinates": [34.764637, 39.813981], "type": "Point"}, "properties": {"city": "Yozgat", "date": "15/03/2018", "death": "Ate\u015fli Silah", "name": "M\u00fchibe E.", "reason": "Bilinmiyor", "req": "Yok", "source": "http://www.haberturk.com/yozgat-haberleri/60854161-30-yillik-esini-uykusunda-vurarak-oldurdu", "type": "boundary", "who": "Kocas\u0131", "year": 2018}, "type": "Feature"}, {"geometry": {"coordinates": [35.526553, 38.749949], "type": "Point"}, "properties": {"city": "Kayseri", "date": "09/12/2018", "death": "Ate\u015fli Silah", "name": "Serpil Y\u0131ld\u0131z", "reason": "Tespit Edilemeyen", "req": "Yok", "source": "http://www.milliyet.com.tr/iliski-yasadigi-kadini-sokak-gundem-2792154/", "type": "boundary", "who": "Sevgilisi", "year": 2018}, "type": "Feature"}, {"geometry": {"coordinates": [27.153882, 38.449213], "type": "Point"}, "properties": {"city": "\u0130zmir", "date": "09/12/2018", "death": "Darp", "name": "\u015eenay \u00d6zkan", "reason": "Tespit Edilemeyen", "req": "Yok", "source": "http://www.milliyet.com.tr/cifte-infazin-nedeni-belli-oldu--gundem-2792118/", "type": "boundary", "who": "Tespit Edilemeyen", "year": 2018}, "type": "Feature"}, {"geometry": {"coordinates": [27.160889, 38.380144], "type": "Point"}, "properties": {"city": "\u0130zmir", "date": "08/12/2018", "death": "Yanma", "name": "\u0130smi Bilinmiyor", "reason": "Tespit Edilemeyen", "req": "Tespit Edilemeyen", "source": "http://www.milliyet.com.tr/izmir-de-yanmis-kadin-cesedi-gundem-2791910/", "type": "boundary", "who": "Tespit Edilemeyen", "year": 2018}, "type": "Feature"}, {"geometry": {"coordinates": [36.990203, 39.761351], "type": "Point"}, "properties": {"city": "Sivas", "date": "20/04/2018", "death": "Ate\u015fli Silah", "name": "Fatma Yapmaz", "reason": "Bo\u015fanma Talebi", "req": "Yok", "source": "http://www.milliyet.com.tr/koyde-cinnet-esini-oldurdu--gundem-2652194/", "type": "boundary", "who": "Kocas\u0131", "year": 2018}, "type": "Feature"}, {"geometry": {"coordinates": [29.927553, 40.754938], "type": "Point"}, "properties": {"city": "\u0130zmit", "date": "18/04/2018", "death": "Ate\u015fli Silah", "name": "Serpil Ertekin", "reason": "Tart\u0131\u015fma", "req": "Yok", "source": "http://www.milliyet.com.tr/gozu-onunde-oldurulen-annesinin-gundem-2650919/", "type": "boundary", "who": "Sevgilisi", "year": 2018}, "type": "Feature"}, {"geometry": {"coordinates": [28.984717, 41.087737], "type": "Point"}, "properties": {"city": "\u0130stanbul", "date": "01/03/2018", "death": "Kesici Alet", "name": "Hatice \u00d6.", "reason": "Tart\u0131\u015fma", "req": "Yok", "source": "http://www.milliyet.com.tr/kartal-da-evlat-dehseti-annesi-gundem-2619260/", "type": "boundary", "who": "O\u011flu", "year": 2018}, "type": "Feature"}, {"geometry": {"coordinates": [38.318819, 38.331983], "type": "Point"}, "properties": {"city": "Malatya", "date": "03/03/2018", "death": "Ate\u015fli Silah", "name": "K\u00fcbra F\u0131rat", "reason": "Bo\u015fanma Talebi", "req": "Yok", "source": "https://www.evrensel.net/haber/346783/genc-kadin-bosanmak-istedigi-esi-tarafindan-olduruldu", "type": "boundary", "who": "Kocas\u0131", "year": 2018}, "type": "Feature"}, {"geometry": {"coordinates": [26.5162, 41.706439], "type": "Point"}, "properties": {"city": "Edirne", "date": "15/03/2018", "death": "Kesici Alet, Darp", "name": "K\u0131ymet \u00d6zkan", "reason": "Kendi hayat\u0131n karar vermek istedi\u011fi i\u00e7in", "req": "Yok", "source": "https://editor.sol.org.tr/toplum/edirnede-kadin-cinayeti-disari-cikmak-isteyen-esini-oldurdu-237598", "type": "boundary", "who": "Kocas\u0131", "year": 2018}, "type": "Feature"}, {"geometry": {"coordinates": [27.466429, 38.569877], "type": "Point"}, "properties": {"city": "Manisa", "date": "20/03/2018", "death": "Tespit Edilemeyen", "name": "Hatice Uyar", "reason": "Tespite Edilemeyen", "req": "Yok", "source": "https://www.timeturk.com/manisa-da-kaybolan-kadinin-cesedinin-bulunmasi/haber-868528", "type": "boundary", "who": "Tan\u0131d\u0131\u011f\u0131 Birisi", "year": 2018}, "type": "Feature"}, {"geometry": {"coordinates": [33.763955, 41.372282], "type": "Point"}, "properties": {"city": "Kastomonu", "date": "17/05/2018", "death": "Kesici Alet", "name": "P\u0131nar \u00c7elik", "reason": "Tart\u0131\u015fma", "req": "Yok", "source": "http://www.hurriyet.com.tr/gundem/kastamonuda-korkunc-olay-uzerini-ortup-sabaha-kadar-bekledi-40839580", "type": "boundary", "who": "Sevgilisi", "year": 2018}, "type": "Feature"}, {"geometry": {"coordinates": [30.545197, 38.770963], "type": "Point"}, "properties": {"city": "Afyonkarahisar", "date": "28/03/2018", "death": "Ate\u015fli Silah", "name": "Bahar Karaba\u011f", "reason": "Husumet", "req": "Yok", "source": "http://www.star.com.tr/yasam/afyonkarahisarda-cinayet-2-olu-haber-1325222/", "type": "boundary", "who": "Tan\u0131d\u0131\u011fi Birisi", "year": 2018}, "type": "Feature"}, {"geometry": {"coordinates": [32.86394, 39.887056], "type": "Point"}, "properties": {"city": "Ankara", "date": "29/03/2018", "death": "As\u0131larak", "name": "Ba\u015fak Alara  Karademir", "reason": "Tespit Edilemeyen", "req": "Yok", "source": "http://www.hurriyet.com.tr/gundem/alaradan-kotu-haber-geldi-40788515", "type": "boundary", "who": "Tan\u0131d\u0131\u011f\u0131 Birisi", "year": 2018}, "type": "Feature"}, {"geometry": {"coordinates": [26.70211, 39.33213], "type": "Point"}, "properties": {"city": "Ayval\u0131k", "date": "21/05/2018", "death": "Bo\u011fulma", "name": "Aytekin Muzmun", "reason": "Tart\u0131\u015fma", "req": "Yok", "source": "http://www.milliyet.com.tr/cani-ogul-itiraf-etti-annemi-gundem-2673041/", "type": "boundary", "who": "O\u011flu", "year": 2018}, "type": "Feature"}, {"geometry": {"coordinates": [40.18067, 37.960486], "type": "Point"}, "properties": {"city": "Diyarbak\u0131r", "date": "21/05/2018", "death": "Ate\u015fli Silah", "name": "Pelda K.", "reason": "Aldatma \u015e\u00fcphesi", "req": "Yok", "source": "http://www.milliyet.com.tr/12-yasinda-kacirildi-18-ine-gundem-2673000/", "type": "boundary", "who": "Kocas\u0131", "year": 2018}, "type": "Feature"}, {"geometry": {"coordinates": [37.417202, 37.097555], "type": "Point"}, "properties": {"city": "Gaziantep", "date": "21/05/2018", "death": "Kesici Alet", "name": "Nezihe U\u00e7ar", "reason": "Tart\u0131\u015fma", "req": "Yok", "source": "http://www.milliyet.com.tr/kaniniz-donacak-anne-ve-babasini-gundem-galeri-2672948/", "type": "boundary", "who": "O\u011flu", "year": 2018}, "type": "Feature"}, {"geometry": {"coordinates": [36.903075, 37.631866], "type": "Point"}, "properties": {"city": "Kahramanmara\u015f", "date": "20/05/2018", "death": "Kesici Alet", "name": "Nezihe Temel", "reason": "Para", "req": "Yok", "source": "http://www.milliyet.com.tr/vahset-once-hazirladigi-gundem-2672683/", "type": "boundary", "who": "Tan\u0131mad\u0131\u011f\u0131\u00a0BIrisi", "year": 2018}, "type": "Feature"}, {"geometry": {"coordinates": [29.015607, 40.14433], "type": "Point"}, "properties": {"city": "Bursa", "date": "19/05/2018", "death": "Ate\u015fli Silah", "name": "R\u00fcmeysa Sakin", "reason": "Bilinmiyor", "req": "Yok", "source": "http://www.milliyet.com.tr/dort-kisinin-katili-namusumu-gundem-2672268/", "type": "boundary", "who": "Babas\u0131", "year": 2018}, "type": "Feature"}, {"geometry": {"coordinates": [29.08868, 40.179365], "type": "Point"}, "properties": {"city": "Bursa ", "date": "19/05/2018", "death": "Ate\u015fli Silah", "name": "Havva Sakin", "reason": "Namus", "req": "Yok", "source": "http://www.milliyet.com.tr/dort-kisinin-katili-namusumu-gundem-2672268/", "type": "boundary", "who": "Kocas\u0131", "year": 2018}, "type": "Feature"}, {"geometry": {"coordinates": [34.663639, 37.996172], "type": "Point"}, "properties": {"city": "Ni\u011fde", "date": "02/04/2018", "death": "Ate\u015fli Silah", "name": "Sibel Y.", "reason": "Bo\u015fanma Talebi", "req": "Yok", "source": "http://www.star.com.tr/guncel/nigdede-karisini-olduren-zanli-kayinvalidesini-yaraladi-haber-1326945/", "type": "boundary", "who": "Kocas\u0131", "year": 2018}, "type": "Feature"}, {"geometry": {"coordinates": [37.339124, 37.057515], "type": "Point"}, "properties": {"city": "Gaziantep", "date": "06/04/2018", "death": "Kesici Alet", "name": "Halime S.", "reason": "Tart\u0131\u015fma", "req": "Yok", "source": "https://www.yeniakit.com.tr/haber/insanin-yeryuzu-macerasi-semineri-445316.html", "type": "boundary", "who": "O\u011flu", "year": 2018}, "type": "Feature"}, {"geometry": {"coordinates": [32.876953, 39.915084], "type": "Point"}, "properties": {"city": "Ankara", "date": "07/12/2018", "death": "Ate\u015fli Silah", "name": "Emine T.", "reason": "Bo\u015fanma Talebi", "req": "Yok", "source": "http://www.milliyet.com.tr/ankara-da-dehset-esini-oldurdu--gundem-2791457/", "type": "boundary", "who": "Kocas\u0131", "year": 2018}, "type": "Feature"}, {"geometry": {"coordinates": [28.988721, 41.042692], "type": "Point"}, "properties": {"city": "\u0130stanbul", "date": "12/12/2018", "death": "Ate\u015fli Silah", "name": "G\u00fclten G\u00fcl\u00fcm Dil ", "reason": "Tespit Edilemeyen", "req": "Tespit Edilemeyen", "source": "http://www.milliyet.com.tr/istanbul-da-sokak-ortasinda-gundem-2793828/", "type": "boundary", "who": "Tespit Edilemeyen", "year": 2018}, "type": "Feature"}, {"geometry": {"coordinates": [30.283451, 37.730223], "type": "Point"}, "properties": {"city": "Burdur", "date": "18/12/2018", "death": "Ate\u015fli Silah", "name": "Nil\u00fcfer Dan\u0131\u015f", "reason": "Tart\u0131\u015fma", "req": "Yok", "source": "http://www.hurriyet.com.tr/gundem/sen-cocugu-al-diger-odaya-gec-dedi-sonrasi-korkunc-41055959", "type": "boundary", "who": "Kocas\u0131", "year": 2018}, "type": "Feature"}, {"geometry": {"coordinates": [30.287455, 37.686179], "type": "Point"}, "properties": {"city": "Burdur", "date": "18/12/2018", "death": "Ate\u015fli Silah", "name": "Gizem Nur Dan\u0131\u015f", "reason": "Tart\u0131\u015fma", "req": "Yok", "source": "http://www.hurriyet.com.tr/gundem/sen-cocugu-al-diger-odaya-gec-dedi-sonrasi-korkunc-41055959", "type": "boundary", "who": "Babas\u0131", "year": 2018}, "type": "Feature"}, {"geometry": {"coordinates": [30.681212, 36.925006], "type": "Point"}, "properties": {"city": "Antalya", "date": "19/12/2018", "death": "Ate\u015fli Silah", "name": "Simge Y\u0131ld\u0131z", "reason": "Tespit Edilemeyen", "req": "Yok", "source": "http://www.hurriyet.com.tr/gundem/oldurdugu-eski-nisanlisini-sonun-diger-kadinlar-gibi-olacak-diye-tehdit-etmis-41057134", "type": "boundary", "who": "Eski Ni\u015fanl\u0131s\u0131", "year": 2018}, "type": "Feature"}, {"geometry": {"coordinates": [29.001734, 41.03068], "type": "Point"}, "properties": {"city": "\u0130stanbul", "date": "20/12/2018", "death": "Darp, Bo\u011fma, Yakma", "name": "Lina Halid", "reason": "Husumet, Tart\u0131\u015fma", "req": "Yok", "source": "http://www.hurriyet.com.tr/gundem/bahcelievlerdeki-korkunc-cinayette-flas-gelisme-41058027", "type": "boundary", "who": "Akrabas\u0131", "year": 2018}, "type": "Feature"}, {"geometry": {"coordinates": [28.998731, 41.022672], "type": "Point"}, "properties": {"city": "\u0130stanbul", "date": "22/12/2018", "death": "Kesici Alet", "name": "Nefise Dolap\u00e7\u0131", "reason": "Tart\u0131\u015fma", "req": "Yok", "source": "http://www.milliyet.com.tr/besiktas-taki-korkunc-olayda-flas-gundem-2799689/", "type": "boundary", "who": "Tan\u0131d\u0131\u011f\u0131 Birisi", "year": 2018}, "type": "Feature"}, {"geometry": {"coordinates": [30.67921, 36.880962], "type": "Point"}, "properties": {"city": "Antalya", "date": "22/12/2018", "death": "Bo\u011fma", "name": "Z\u00fcbeyde Demirbozan", "reason": "K\u0131skan\u00e7l\u0131k", "req": "Yok", "source": "http://www.milliyet.com.tr/kan-donduran-ayrintilar-seni-gundem-2799530/", "type": "boundary", "who": "Kocas\u0131", "year": 2018}, "type": "Feature"}, {"geometry": {"coordinates": [32.542785, 37.877897], "type": "Point"}, "properties": {"city": "Konya", "date": "22/12/2018", "death": "Kesici Alet", "name": "Hediye \u0130nan\u00e7", "reason": "Tart\u0131\u015fma", "req": "Yok", "source": "http://www.milliyet.com.tr/bosandigi-kadini-ve-erkek-gundem-2799458/", "type": "boundary", "who": "Eski Kocas\u0131", "year": 2018}, "type": "Feature"}, {"geometry": {"coordinates": [29.021613, 40.179365], "type": "Point"}, "properties": {"city": "Bursa", "date": "22/12/2018", "death": "Kesici Alet", "name": "Zuhal Kayalp", "reason": "Tart\u0131\u015fma", "req": "Yok", "source": "http://www.milliyet.com.tr/bursa-da-vahset-esinin-ve-5-aylik-gundem-2799382/", "type": "boundary", "who": "Kocas\u0131", "year": 2018}, "type": "Feature"}, {"geometry": {"coordinates": [30.683214, 36.833915], "type": "Point"}, "properties": {"city": "Antalya", "date": "22/12/2018", "death": "Ate\u015fli Silah", "name": "Hatice Bah\u00e7ecio\u011flu", "reason": "Tespit Edilemeyen", "req": "Yok", "source": "http://www.milliyet.com.tr/evlilik-hazirligi-yapan-cifti-gundem-2799375/", "type": "boundary", "who": "Eski Kocas\u0131", "year": 2018}, "type": "Feature"}, {"geometry": {"coordinates": [40.736339, 37.312957], "type": "Point"}, "properties": {"city": "Mardin", "date": "21/12/2018", "death": "Ate\u015fli Silah", "name": "Rojda Bulga", "reason": "Tespit Edilemeyen", "req": "Yok", "source": "http://www.milliyet.com.tr/dehset-sacan-damatla-ilgili-soke-gundem-2798975/", "type": "boundary", "who": "Kocas\u0131", "year": 2018}, "type": "Feature"}, {"geometry": {"coordinates": [40.696299, 37.302947], "type": "Point"}, "properties": {"city": "Mardin", "date": "21/12/2018", "death": "Ate\u015fli Silah", "name": "Sadiye Andi\u00e7", "reason": "Tespit Edilemeyen", "req": "Yok", "source": "http://www.milliyet.com.tr/dehset-sacan-damatla-ilgili-soke-gundem-2798975/", "type": "boundary", "who": "Damad\u0131", "year": 2018}, "type": "Feature"}, {"geometry": {"coordinates": [32.474717, 37.895915], "type": "Point"}, "properties": {"city": "Konya", "date": "21/12/2018", "death": "Kesici Alet", "name": "Amira Alyassouf", "reason": "Tart\u0131\u015fma", "req": "Yok", "source": "http://www.milliyet.com.tr/8-aylik-hamile-esini-olduren-gundem-2798896/", "type": "boundary", "who": "Kocas\u0131n\u0131n Karde\u015fi", "year": 2018}, "type": "Feature"}, {"geometry": {"coordinates": [35.336972, 36.973648], "type": "Point"}, "properties": {"city": "Adana", "date": "26/12/2018", "death": "Kesici Alet, Darp", "name": "Sevda \u00c7.", "reason": "Tespit Edilemeyen", "req": "Yok", "source": "http://www.milliyet.com.tr/korkunc-olay-karisini-cekic-ve-gundem-2801410/", "type": "boundary", "who": "Kocas\u0131", "year": 2018}, "type": "Feature"}, {"geometry": {"coordinates": [33.180657, 37.144664], "type": "Point"}, "properties": {"city": "Karaman", "date": "03/01/2018", "death": "Ate\u015fli Silah", "name": "Ceyda Aycan", "reason": "Reddedilme", "req": "Yok", "source": "http://www.hurriyet.com.tr/barismak-icin-cagirdi-sonrasi-felaket-40697795http://www.milliyet.com.tr/barismayan-eski-sevgilisini-gundem-2594921/", "type": "boundary", "who": "Eski Sevgilisi", "year": 2018}, "type": "Feature"}, {"geometry": {"coordinates": [32.514757, 37.8809], "type": "Point"}, "properties": {"city": "Konya", "date": "06/01/2018", "death": "Ate\u015fli Silah", "name": "Mediha Akda\u011f", "reason": "Bo\u015fanma Talebi, Kendi hayat\u0131na karar vermek istemesiRe\u015fit", "req": "Yok", "source": "http://www.hurriyet.com.tr/sevgilisi-ile-kacan-50-yasindaki-kadin-kocasinin-yaklasmasini-caresizlikle-izledi-40701354", "type": "boundary", "who": "Kocas\u0131", "year": 2018}, "type": "Feature"}, {"geometry": {"coordinates": [29.00774, 41.069719], "type": "Point"}, "properties": {"city": "\u0130stanbul", "date": "23/01/2018", "death": "Darp", "name": "E.A.", "reason": "Tart\u0131\u015fma", "req": "Yok", "source": "http://www.milliyet.com.tr/esini-bogarak-olduren-afgan-gundem-2596327/", "type": "boundary", "who": "Kocas\u0131", "year": 2018}, "type": "Feature"}, {"geometry": {"coordinates": [29.045637, 40.158344], "type": "Point"}, "properties": {"city": "Bursa", "date": "22/01/2018", "death": "Kesici Alet", "name": "Fatma Khillo", "reason": "Para", "req": "Yok", "source": "http://www.milliyet.com.tr/34-yasindaki-genc-kadin-altinlari-gundem-2595620/", "type": "boundary", "who": "Tan\u0131d\u0131\u011f\u0131\u00a0Birisi", "year": 2018}, "type": "Feature"}, {"geometry": {"coordinates": [37.422207, 37.097555], "type": "Point"}, "properties": {"city": "Gaziantep", "date": "22/01/2018", "death": "Kesici Alet", "name": "Neslihan Kaya", "reason": "Tart\u0131\u015fma", "req": "Yok", "source": "http://www.milliyet.com.tr/kocasi-tarafindan-38-yerinden-gundem-2595430/", "type": "boundary", "who": "Kocas\u0131", "year": 2018}, "type": "Feature"}, {"geometry": {"coordinates": [27.130859, 38.451215], "type": "Point"}, "properties": {"city": "\u0130zmir", "date": "01/02/2018", "death": "Ate\u015fli Silah", "name": "Serpil K.", "reason": "Tart\u0131\u015fma", "req": "Yok", "source": "http://www.milliyet.com.tr/once-yengesini-sonra-kendisini-gundem-2602166/", "type": "boundary", "who": "Akraba", "year": 2018}, "type": "Feature"}, {"geometry": {"coordinates": [32.53778, 37.835855], "type": "Point"}, "properties": {"city": "Konya", "date": "09/02/2018", "death": "Ate\u015fli Silah", "name": "Asiye K\u0131l\u0131\u00e7el", "reason": "Aldatma", "req": "Yok", "source": "http://www.milliyet.com.tr/aldattigini-iddia-ettigi-esini-gundem-2606904/", "type": "boundary", "who": "Kocas\u0131", "year": 2018}, "type": "Feature"}, {"geometry": {"coordinates": [43.148686, 40.585732], "type": "Point"}, "properties": {"city": "Kars", "date": "12/02/2018", "death": "Ate\u015fli Silah", "name": "Gizem E\u015fit", "reason": "Tart\u0131\u015fma, Bo\u015fanma Talebi", "req": "Yok", "source": "http://www.milliyet.com.tr/esini-pompali-tufekle-oldurdu--gundem-2608693/", "type": "boundary", "who": "Kocas\u0131", "year": 2018}, "type": "Feature"}, {"geometry": {"coordinates": [27.89621, 39.662447], "type": "Point"}, "properties": {"city": "Bal\u0131kesir", "date": "20/02/2018", "death": "Ate\u015fli Silah", "name": "Melike \u00c7etinkaya", "reason": "Tart\u0131\u015fma", "req": "Yok", "source": "http://www.hurriyet.com.tr/katliami-sosyal-medyada-paylasti-3-olu-4-yarali-40747394http://www.hurriyet.com.tr/havranda-oldurulen-anne-ve-2-cocugu-gece-defnedildi-40748576", "type": "boundary", "who": "Tan\u0131d\u0131\u011f\u0131 Birisi", "year": 2018}, "type": "Feature"}, {"geometry": {"coordinates": [27.923237, 39.647432], "type": "Point"}, "properties": {"city": "Bal\u0131kesir", "date": "20/02/2018", "death": "Ate\u015fli Silah", "name": "Ebru \u00c7etinkaya", "reason": "Tart\u0131\u015fma", "req": "Yok", "source": "http://www.hurriyet.com.tr/havranda-oldurulen-anne-ve-2-cocugu-gece-defnedildi-40748576http://www.hurriyet.com.tr/havranda-oldurulen-anne-ve-2-cocugu-gece-defnedildi-40748576", "type": "boundary", "who": "Tan\u0131d\u0131\u011f\u0131 Birisi", "year": 2018}, "type": "Feature"}, {"geometry": {"coordinates": [28.953686, 41.016666], "type": "Point"}, "properties": {"city": "\u0130stanbul", "date": "20/02/2018", "death": "Kesici Alet", "name": "Fadime Korkmaz", "reason": "Tart\u0131\u015fma", "req": "Yok", "source": "http://www.milliyet.com.tr/esini-keser-ve-bicakla-olduren-gundem-2613761/", "type": "boundary", "who": "Kocas\u0131", "year": 2018}, "type": "Feature"}, {"geometry": {"coordinates": [29.900521, 40.766411], "type": "Point"}, "properties": {"city": "Kocaeli", "date": "19/02/2018", "death": "Tazzikli Su", "name": "H.Y.", "reason": "Kaza", "req": "Yok", "source": "http://www.milliyet.com.tr/esini-kurtarmak-isterken-gundem-2613031/", "type": "boundary", "who": "Kocas\u0131", "year": 2018}, "type": "Feature"}, {"geometry": {"coordinates": [33.490478, 39.888628], "type": "Point"}, "properties": {"city": "K\u0131r\u0131kkale", "date": "17/02/2018", "death": "Yanma", "name": "Ganime Varsak", "reason": "Bilinmiyor", "req": "Yok", "source": "http://www.milliyet.com.tr/yanmis-cesedi-bulunan-kadinin-gundem-2611889/http://siyasihaber3.org/kadin-cinayeti-kirikkalede-yakilmis-halde-bir-kadin-cesedi-bulundu", "type": "boundary", "who": "Bilinmiyor", "year": 2018}, "type": "Feature"}, {"geometry": {"coordinates": [36.976148, 37.610845], "type": "Point"}, "properties": {"city": "Kahramanmara\u015f", "date": "10/01/2018", "death": "Ate\u015fli Silah", "name": "Fatma Beyg\u00f6zl\u00fc/Fatma Bayg\u00f6zl\u00fc", "reason": "Bilinmiyor", "req": "Yok", "source": "http://www.milliyet.com.tr/anne-ve-babasini-oldurup-kacti-gundem-2588558/https://www.timeturk.com/anne-babasini-av-tufegiyle-oldurdu/haber-824769", "type": "boundary", "who": "O\u011flu", "year": 2018}, "type": "Feature"}, {"geometry": {"coordinates": [29.079175, 36.585929], "type": "Point"}, "properties": {"city": "Fethiye", "date": "27/02/2018", "death": "Ate\u015fli Silah", "name": "Serpil Halat", "reason": "Tart\u0131\u015fma", "req": "Yok", "source": "http://siyasihaber3.org/kadin-cinayeti-bir-erkek-esinin-basina-baltayla-vurarak-oldurdu", "type": "boundary", "who": "Kay\u0131npederi", "year": 2018}, "type": "Feature"}, {"geometry": {"coordinates": [27.870184, 39.674459], "type": "Point"}, "properties": {"city": "Bal\u0131kesir", "date": "26/02/2018", "death": "Ate\u015fli Silah", "name": "G\u00fcl\u015fen \u00c7etinkaya", "reason": "Tart\u0131\u015fma", "req": "Yok", "source": "http://www.milliyet.com.tr/infial-yaratan-olayda-olu-sayisi-gundem-2617318/", "type": "boundary", "who": "Tan\u0131d\u0131\u011f\u0131 Birisi", "year": 2018}, "type": "Feature"}, {"geometry": {"coordinates": [28.989722, 41.033683], "type": "Point"}, "properties": {"city": "\u0130stanbul", "date": "02/01/2018", "death": "Ate\u015fli Silah", "name": "Elif Mina", "reason": "Annesinin Bo\u015fanma Talebi", "req": "Yok", "source": "http://www.ensonhaber.com/cinnet-getiren-baba-2-kizini-oldurup-intihar-etti.html", "type": "boundary", "who": "Babas\u0131", "year": 2018}, "type": "Feature"}, {"geometry": {"coordinates": [29.024757, 41.049699], "type": "Point"}, "properties": {"city": "\u0130stanbul", "date": "02/01/2018", "death": "Ate\u015fli Silah", "name": "Miray Hira", "reason": "Annesinin Bo\u015fanma Talebi", "req": "Yok", "source": "http://www.ensonhaber.com/cinnet-getiren-baba-2-kizini-oldurup-intihar-etti.html", "type": "boundary", "who": "Babas\u0131", "year": 2018}, "type": "Feature"}, {"geometry": {"coordinates": [33.232709, 37.143663], "type": "Point"}, "properties": {"city": "Karaman", "date": "03/01/2018", "death": "Ate\u015fli Silah", "name": "Ceyda Aycan", "reason": "Reddedilme", "req": "Yok", "source": "http://www.gazetevatan.com/parkta-tartistigi-eski-kiz-arkadasini-vurarak-oldurdu-1131524-yasam/", "type": "boundary", "who": "Eski Sevgilisi", "year": 2018}, "type": "Feature"}, {"geometry": {"coordinates": [29.972045, 39.408858], "type": "Point"}, "properties": {"city": "K\u00fctahya", "date": "05/01/2018", "death": "Bilinmiyor", "name": "Havva Ba\u015ft\u00fcrk", "reason": "Bilinmiyor", "req": "Yok", "source": "http://www.milliyet.com.tr/kutahya-da-supheli-olum-kutahya-yerelhaber-2512497/", "type": "boundary", "who": "Bilinmiyor", "year": 2018}, "type": "Feature"}, {"geometry": {"coordinates": [36.383386, 41.259018], "type": "Point"}, "properties": {"city": "Samsun", "date": "06/01/2018", "death": "Bilinmiyor", "name": "\u015e\u00fckran Orhan", "reason": "Bilinmiyor", "req": "Yok", "source": "http://www.cumhuriyet.com.tr/haber/turkiye/899950/Engelli_kadinin_cesedi_sahilde_bulundu.html", "type": "boundary", "who": "Bilinmiyor", "year": 2018}, "type": "Feature"}, {"geometry": {"coordinates": [37.122396, 36.721455], "type": "Point"}, "properties": {"city": "Kilis", "date": "08/01/2018", "death": "Bilinmiyor", "name": "\u0130smi Bilinmiyor", "reason": "Bilinmiyor", "req": "Bilinmiyor", "source": "http://haber.sol.org.tr/toplum/kiliste-kadin-cinayeti-224118", "type": "boundary", "who": "Bilinmiyor", "year": 2018}, "type": "Feature"}, {"geometry": {"coordinates": [33.465453, 39.885625], "type": "Point"}, "properties": {"city": "K\u0131r\u0131\u0131kkale", "date": "17/01/2018", "death": "Ate\u015fli Silah", "name": "G\u00fcl\u00fc\u015fan G\u00fcven", "reason": "Bilinmiyor", "req": "Yok", "source": "http://www.boldhaber.com/asayis/kirikkalede-korkunc-olay-anne-ile-oglu-olduruldu/159668", "type": "boundary", "who": "Bilinmiyor", "year": 2018}, "type": "Feature"}, {"geometry": {"coordinates": [29.02776, 41.104754], "type": "Point"}, "properties": {"city": "\u0130stanbul", "date": "19/08/2018", "death": "Ate\u015fli Silah", "name": "Bahar Salu\u011fu", "reason": "Tart\u0131\u015fma", "req": "Yok", "source": "https://www.sozcu.com.tr/2018/gundem/avcilarda-dehset-esinin-oldurup-intihar-etti-2583352/", "type": "boundary", "who": "Kocas\u0131", "year": 2018}, "type": "Feature"}, {"geometry": {"coordinates": [27.418381, 38.648956], "type": "Point"}, "properties": {"city": "Manisa", "date": "01/07/2018", "death": "Vurucu Darbe", "name": "Elif Dayan", "reason": "Bilinmiyor", "req": "Yok", "source": "https://www.egehaber.com/izmir/izmir-kinik-ta-cinayet-anne-baba-olduruldu-ogullari-h232783.html", "type": "boundary", "who": "O\u011flu", "year": 2018}, "type": "Feature"}, {"geometry": {"coordinates": [38.831316, 37.192726], "type": "Point"}, "properties": {"city": "\u015eanl\u0131urfa", "date": "03/07/2018", "death": "Kesici Alet", "name": "Zemzem Server", "reason": "Tart\u0131\u015fma", "req": "Yok", "source": "http://www.posta.com.tr/sanliurfada-koca-vahseti-video-2020300", "type": "boundary", "who": "Kocas\u0131", "year": 2018}, "type": "Feature"}, {"geometry": {"coordinates": [43.018748, 39.747837], "type": "Point"}, "properties": {"city": "A\u011fr\u0131", "date": "03/07/2018", "death": "Tespit Edilemeyen", "name": "Leyla Aldemir", "reason": "Tespit Edilemeyen", "req": "Yok", "source": "https://www.cnnturk.com/turkiye/kucuk-leyla-cinayetinde-flas-gelisme-supheli-kisinin-kadin-oldugu-ogrenildi", "type": "boundary", "who": "Tespit Edilemeyen", "year": 2018}, "type": "Feature"}, {"geometry": {"coordinates": [29.016749, 41.015665], "type": "Point"}, "properties": {"city": "\u0130stanbul", "date": "04/07/2018", "death": "Tespit Edilemeyen", "name": "Hatice Uzun", "reason": "Aldatma \u015e\u00fcphesi", "req": "Yok", "source": "https://www.birgun.net/haber-detay/intihar-etti-denilen-kadin-oldurulmus-221824.html", "type": "boundary", "who": "Erkek Karde\u015fi", "year": 2018}, "type": "Feature"}, {"geometry": {"coordinates": [29.102694, 40.135321], "type": "Point"}, "properties": {"city": "Bursa", "date": "09/07/2018", "death": "Ate\u015fli Silah", "name": "Ye\u015fim Sabay", "reason": "Tart\u0131\u015fma", "req": "Yok", "source": "http://www.hurriyet.com.tr/gundem/kiz-kacirma-kavgasi-anne-ve-oglu-olduruldu-40890642", "type": "boundary", "who": "Tan\u0131d\u0131\u011f\u0131 Birisi", "year": 2018}, "type": "Feature"}, {"geometry": {"coordinates": [35.350986, 36.967642], "type": "Point"}, "properties": {"city": "Adana", "date": "11/07/2018", "death": "Tespit Edilemeyen", "name": "Rahime Erdem", "reason": "Tespit Edilemeyen", "req": "Yok", "source": "http://www.gazetevatan.com/adana-da-bir-kadin-evinde-olu-bulundu-1181764-yasam/", "type": "boundary", "who": "Tespit Edilemeyen", "year": 2018}, "type": "Feature"}, {"geometry": {"coordinates": [27.378341, 38.645953], "type": "Point"}, "properties": {"city": "Manisa", "date": "11/07/2018", "death": "Darp", "name": "Z\u00fcmr\u00fcthen Kutluay", "reason": "Tart\u0131\u015fma", "req": "Yok", "source": "http://www.aydindenge.com.tr/guncel/11/07/2018/ibrahim-kutluay-karisini-doverek-oldurdu", "type": "boundary", "who": "Kocas\u0131", "year": 2018}, "type": "Feature"}, {"geometry": {"coordinates": [27.104833, 38.474238], "type": "Point"}, "properties": {"city": "\u0130zmir", "date": "11/07/2018", "death": "Kesici Alet", "name": "G\u00fcl\u015fen Nar\u015fap", "reason": "Tart\u0131\u015fma", "req": "Yok", "source": "https://www.haberler.com/tartistigi-esini-bicaklayarak-oldurdu-11038375-haberi/", "type": "boundary", "who": "Kocas\u0131", "year": 2018}, "type": "Feature"}, {"geometry": {"coordinates": [36.308311, 41.248007], "type": "Point"}, "properties": {"city": "Samsun", "date": "14/07/2018", "death": "Belirtilmemi\u015f", "name": "Simge Sezer", "reason": "Tart\u0131\u015fma", "req": "Yok", "source": "https://bianet.org/bianet/toplumsal-cinsiyet/199169-samsun-da-trans-cinayeti", "type": "boundary", "who": "Sevgilisi", "year": 2018}, "type": "Feature"}, {"geometry": {"coordinates": [30.674205, 36.849931], "type": "Point"}, "properties": {"city": "Antalya", "date": "18/07/2018", "death": "Darp, Bo\u011fulma", "name": "Karin Ellen Hitzel", "reason": "Reddedilme", "req": "Yok", "source": "http://www.posta.com.tr/antalyada-insaat-iscisi-alman-kadini-oldurdu-2026704", "type": "boundary", "who": "Tan\u0131d\u0131\u011f\u0131 Birisi", "year": 2018}, "type": "Feature"}, {"geometry": {"coordinates": [31.61878, 40.727607], "type": "Point"}, "properties": {"city": "Bolu", "date": "13/07/2018", "death": "Tespit Edilemeyen", "name": "Ay\u015fe Yard\u0131mc\u0131", "reason": "Tespit Edilemeyen", "req": "Yok", "source": "https://www.yeniakit.com.tr/haber/yasli-kadin-ormanda-olu-bulundu-492205.html", "type": "boundary", "who": "Tespit Edilmeyen", "year": 2018}, "type": "Feature"}, {"geometry": {"coordinates": [31.993099, 36.519166], "type": "Point"}, "properties": {"city": "Alanya", "date": "11/07/2018", "death": "Tespit Edilemeyen", "name": "Suna T.", "reason": "Tespit Edliemeyen", "req": "Yok", "source": "http://www.haberalanya.com.tr/asayis/kadin-evinde-olu-bulundu-h47636.html", "type": "boundary", "who": "Tespit Edilemeyen", "year": 2018}, "type": "Feature"}, {"geometry": {"coordinates": [34.60412, 36.824905], "type": "Point"}, "properties": {"city": "Mersin", "date": "17/07/2018", "death": "Y\u00fcksekten D\u00fc\u015fme", "name": "S\u00fcreyya C.", "reason": "Tespit Edilemeyen", "req": "Yok", "source": "https://www.cnnturk.com/turkiye/kocasi-cezaevinden-izinli-gelen-kadin-dorduncu-kattan-dusup-oldu", "type": "boundary", "who": "Kocasi", "year": 2018}, "type": "Feature"}, {"geometry": {"coordinates": [29.025758, 41.047697], "type": "Point"}, "properties": {"city": "\u0130stanbul", "date": "17/07/2018", "death": "Kesici Alet", "name": "T\u00fcrkan Uygun", "reason": "Tespit Edilemeyen", "req": "Yok", "source": "http://www.cumhuriyet.com.tr/haber/turkiye/1029766/Annesini_oldurup__bicakla_cirilciplak_sokaga_cikti.html", "type": "boundary", "who": "O\u011flu", "year": 2018}, "type": "Feature"}, {"geometry": {"coordinates": [37.359144, 37.040498], "type": "Point"}, "properties": {"city": "Gaziantep", "date": "19/07/2018", "death": "Darp", "name": "Aysel Kurt", "reason": "Tart\u0131\u015fma", "req": "Yok", "source": "https://www.cnnturk.com/turkiye/imam-nikahli-esi-hamile-kadini-vahsice-oldurdu", "type": "boundary", "who": "Sevgilisi", "year": 2018}, "type": "Feature"}, {"geometry": {"coordinates": [36.293296, 41.234994], "type": "Point"},