{"features": [{"geometry": {"coordinates": [27.14187, 38.42619], "type": "Point"}, "properties": {"city": "\u0130zmir", "date": "06/10/2011", "death": "Ate\u015fli Silah", "name": "Filiz Akta\u015f", "reason": "Tespit Edilemeyen", "req": "Yok", "source": "http://www.milliyet.com.tr/uc-kez-karar-cikti-dorduncu-de--gundem-2791771/", "type": "boundary", "who": "Eski Kocas\u0131", "year": 2011}, "type": "Feature"}, {"geometry": {"coordinates": [27.8862, 39.64543], "type": "Point"}, "properties": {"city": "Bal\u0131kesir", "date": "07/03/2011", "death": "D\u00f6v\u00fclme", "name": "Ayten Erden", "reason": "Erke\u011fin istedi\u011fi bir \u015feyin ger\u00e7ekle\u015fmemesi sebebiyle", "req": "yok", "source": "http://www.dha.com.tr/engelli-kizini-doverek-oldurdu_146738.html", "type": "boundary", "who": "Babas\u0131", "year": 2011}, "type": "Feature"}, {"geometry": {"coordinates": [37.37516, 37.06252], "type": "Point"}, "properties": {"city": "Gaziantep", "date": "05/05/2011", "death": "Ate\u015fli Silah ", "name": "G\u00fcl Aksoy", "reason": "Tespit Edilemeyen", "req": "yok", "source": "http://www.dha.com.tr/gaziantep-cinayetinin-ayrintilari-cikiyor_160174.html", "type": "boundary", "who": "Kocas\u0131", "year": 2011}, "type": "Feature"}, {"geometry": {"coordinates": [37.406191, 37.101559], "type": "Point"}, "properties": {"city": "Gaziantep", "date": "05/05/2011", "death": "Ate\u015fli Silah", "name": "Melisa Aksoy", "reason": "Tespit Edilemeyen", "req": "yok", "source": "http://www.dha.com.tr/gaziantep-cinayetinin-ayrintilari-cikiyor_160174.html", "type": "boundary", "who": "Babas\u0131", "year": 2011}, "type": "Feature"}, {"geometry": {"coordinates": [37.366151, 37.035493], "type": "Point"}, "properties": {"city": "Gaziantep", "date": "05/05/2011", "death": "Ate\u015fli Silah", "name": "Melike Aksoy", "reason": "Tespit Edilemeyen", "req": "yok", "source": "http://www.dha.com.tr/gaziantep-cinayetinin-ayrintilari-cikiyor_160174.html", "type": "boundary", "who": "Babas\u0131", "year": 2011}, "type": "Feature"}, {"geometry": {"coordinates": [37.370155, 37.104562], "type": "Point"}, "properties": {"city": "Gaziantep", "date": "05/05/2011", "death": "Bilinmiyor", "name": "Kader Aksoy", "reason": "Tespit Edilemeyen", "req": "Tespit Edilemeyen", "source": "http://www.dha.com.tr/gaziantep-cinayetinin-ayrintilari-cikiyor_160174.html", "type": "boundary", "who": "Babas\u0131", "year": 2011}, "type": "Feature"}, {"geometry": {"coordinates": [39.23577, 38.66783], "type": "Point"}, "properties": {"city": "Elaz\u0131\u011f", "date": "14/02/2011", "death": "Ate\u015fli Silah", "name": "G\u00fclhan Alkan", "reason": "Bo\u015fanma", "req": "Tespit Edilemeyen", "source": "http://www.dha.com.tr/babasi-oldurdu_142051.html", "type": "boundary", "who": "Babas\u0131", "year": 2011}, "type": "Feature"}, {"geometry": {"coordinates": [36.9281, 37.58582], "type": "Point"}, "properties": {"city": "Kahramanmara\u015f", "date": "11/10/2011", "death": "Bo\u011fma", "name": "Y\u0131ld\u0131z Yasavul", "reason": "Namus", "req": "yok", "source": "http://gundem.milliyet.com.tr/kizini-elleriyle-bogarak-oldurdu-pismanim-dedi/gundem/gundemdetay/12.10.2011/1449913/default.htm", "type": "boundary", "who": "Babas\u0131", "year": 2011}, "type": "Feature"}, {"geometry": {"coordinates": [34.80768, 39.82299], "type": "Point"}, "properties": {"city": "Yozgat", "date": "11/01/2011", "death": "Bo\u011fma", "name": "Hacer Alan", "reason": "Namus", "req": "Tespit Edilemeyen", "source": "http://www.dha.com.tr/vahsi-cinayetin-ardindan-baba-ve-agabey-cikti_137733.html", "type": "boundary", "who": "Aile meclisi- Babas\u0131 ve Erkek Karde\u015fi", "year": 2011}, "type": "Feature"}, {"geometry": {"coordinates": [28.98772, 41.06071], "type": "Point"}, "properties": {"city": "\u0130stanbul", "date": "18/05/2011", "death": "Ate\u015fli Silah", "name": "\u00d6zlem Padak", "reason": "Namus", "req": "Tespit Edilemeyen", "source": "http://www.radikal.com.tr/Radikal.aspx?aType=RadikalDetayV3&ArticleID=1049719&CategoryID=77", "type": "boundary", "who": "Erkek Karde\u015fi", "year": 2011}, "type": "Feature"}, {"geometry": {"coordinates": [27.189918, 38.407171], "type": "Point"}, "properties": {"city": "\u0130zmir", "date": "07/01/2011", "death": "B\u0131\u00e7aklama", "name": "Yeliz G\u00fcm\u00fc\u015f", "reason": "Erke\u011fin istedi\u011fi bir \u015feyin ger\u00e7ekle\u015fmemesi sebebiyle", "req": "Tespit Edilemeyen", "source": "http://www.haberturk.com/yasam/haber/589485-tartistigi-ablasini-oldurdu", "type": "boundary", "who": "Erkek Karde\u015fi", "year": 2011}, "type": "Feature"}, {"geometry": {"coordinates": [35.32496, 36.98566], "type": "Point"}, "properties": {"city": "Adana", "date": "16/01/2011", "death": "B\u0131\u00e7aklama", "name": "P\u0131nar Dilek Demirci", "reason": "Kriz ve \u0130\u015fsizlik", "req": "Tespit Edilemeyen", "source": "http://www.dha.com.tr/bu-guzellige-nasil-kiydiniz_136326.html", "type": "boundary", "who": "Erkek Karde\u015fi", "year": 2011}, "type": "Feature"}, {"geometry": {"coordinates": [40.52569, 41.02435], "type": "Point"}, "properties": {"city": "Rize", "date": "08/09/2011", "death": "Ate\u015fli Silah", "name": "Nesrin Sui\u00e7mez", "reason": "Bo\u015fanma", "req": "Yok", "source": "http://www.dha.com.tr/8-aylik-hamile-ablasini-oldurdu_205499.html", "type": "boundary", "who": "Erkek Karde\u015fi", "year": 2011}, "type": "Feature"}, {"geometry": {"coordinates": [36.904076, 37.629864], "type": "Point"}, "properties": {"city": "Kahramanmara\u015f", "date": "18/09/2011", "death": "Ate\u015fli Silah", "name": "Aysun Keme\u00e7", "reason": "Erke\u011fin istedi\u011fi bir \u015feyin ger\u00e7ekle\u015fmemesi sebebiyle", "req": "Yok", "source": "http://www.dha.com.tr/tartistigi-ikiz-kardesini-oldurdu_209383.html", "type": "boundary", "who": "Erkek Karde\u015fi", "year": 2011}, "type": "Feature"}, {"geometry": {"coordinates": [39.218753, 38.674837], "type": "Point"}, "properties": {"city": "Elaz\u0131\u011f", "date": "26/09/2011", "death": "Bo\u011fma", "name": "Ay\u015feg\u00fcl D.", "reason": "Namus - Tecav\u00fcz", "req": "Yok", "source": "http://gundem.milliyet.com.tr/tecavuze-inandiramadi-bogularak-olduruldu/gundem/gundemdetay/27.09.2011/1443594/default.htm", "type": "boundary", "who": "Erkek Karde\u015fi", "year": 2011}, "type": "Feature"}, {"geometry": {"coordinates": [27.81286, 41.15525], "type": "Point"}, "properties": {"city": "\u00c7orlu", "date": "08/03/2011", "death": "Ate\u015fli Silah", "name": "\u00dcnzile \u00c7al\u0131\u015fkan", "reason": "Bo\u015fanma", "req": "Yok", "source": "http://www.radikal.com.tr/Radikal.aspx?aType=RadikalDetayV3&ArticleID=1042042&CategoryID=77", "type": "boundary", "who": "Eski Kocas\u0131", "year": 2011}, "type": "Feature"}, {"geometry": {"coordinates": [32.85393, 39.92109], "type": "Point"}, "properties": {"city": "Ankara", "date": "19/03/2011", "death": "Ate\u015fli Silah", "name": "Selime B.", "reason": "Bo\u015fanma", "req": "Tespit Edilemeyen", "source": "http://www.haberturk.com/yasam/haber/611900-ankarada-dehset", "type": "boundary", "who": "Eski Kocas\u0131", "year": 2011}, "type": "Feature"}, {"geometry": {"coordinates": [28.36288, 37.21563], "type": "Point"}, "properties": {"city": "Mu\u011fla", "date": "25/04/2011", "death": "Ate\u015fli Silah", "name": "T\u00fcrkan Bacanak", "reason": "Bo\u015fanma", "req": "Tespit Edilemeyen", "source": "http://www.sabah.com.tr/Yasam/2011/04/25/bosandigi-karisini-oldurdu", "type": "boundary", "who": "Eski Kocas\u0131", "year": 2011}, "type": "Feature"}, {"geometry": {"coordinates": [30.70924, 36.87896], "type": "Point"}, "properties": {"city": "Antalya", "date": "24/04/2011", "death": " B\u0131\u00e7aklama", "name": "Ayfer Yeni", "reason": "Bo\u015fanma", "req": "Tespit Edilemeyen", "source": "http://www.dha.com.tr/bosandigi-karisini-oldurdu_157983.html", "type": "boundary", "who": "Eski Kocas\u0131", "year": 2011}, "type": "Feature"}, {"geometry": {"coordinates": [29.94957, 40.77542], "type": "Point"}, "properties": {"city": "Kocaeli", "date": "16/07/2011", "death": "Ate\u015fli Silah", "name": "\u0130lknur B\u00fcy\u00fckyaz\u0131c\u0131", "reason": "Bo\u015fanma", "req": "Ger\u00e7ekle\u015fmemi\u015f", "source": "http://gundem.milliyet.com.tr/oldurulmeden-uc-gun-once-dilekce-vermis/gundem/gundemdetay/18.07.2011/1415934/default.htm", "type": "boundary", "who": "Eski Kocas\u0131", "year": 2011}, "type": "Feature"}, {"geometry": {"coordinates": [27.51506, 40.97864], "type": "Point"}, "properties": {"city": "Tekirda\u011f", "date": "05/02/2011", "death": "B\u0131\u00e7aklama", "name": "Song\u00fcl El\u00e7i", "reason": "K\u0131skan\u00e7l\u0131k", "req": "Yok", "source": "http://www.zaman.com.tr/gundem_10-yil-once-ayrildigi-esini-oldurdu_1089587.html", "type": "boundary", "who": "Eski Kocas\u0131", "year": 2011}, "type": "Feature"}, {"geometry": {"coordinates": [28.939672, 41.062712], "type": "Point"}, "properties": {"city": "\u0130stanbul", "date": "29/05/2011", "death": "Ate\u015fli Silah", "name": "G\u00f6n\u00fcl Karg\u0131l\u0131", "reason": "K\u0131skan\u00e7l\u0131k", "req": "yok", "source": "http://www.dha.com.tr/sancaktepede-kadin-cinayeti_166790.html", "type": "boundary", "who": "Patron", "year": 2011}, "type": "Feature"}, {"geometry": {"coordinates": [28.950683, 41.091741], "type": "Point"}, "properties": {"city": "\u0130stanbul", "date": "31/05/2011", "death": "Ate\u015fli Silah", "name": "Sofia", "reason": "K\u0131skan\u00e7l\u0131k", "req": "Ger\u00e7ekle\u015fmemi\u015f", "source": "http://www.haberturk.com/yasam/haber/636169-sehadet-getir-oleceksin", "type": "boundary", "who": "Patron - Sevgili", "year": 2011}, "type": "Feature"}, {"geometry": {"coordinates": [36.15872, 36.20337], "type": "Point"}, "properties": {"city": "Hatay", "date": "01/06/2011", "death": "Ate\u015fli Silah", "name": "P\u0131nar Altun", "reason": "Namus", "req": "yok", "source": "http://www.sabah.com.tr/Yasam/2011/05/31/hatayda-iki-sevgili-olu-bulundu", "type": "boundary", "who": "Bilinmiyor", "year": 2011}, "type": "Feature"}, {"geometry": {"coordinates": [27.915229, 39.649434], "type": "Point"}, "properties": {"city": "Bal\u0131kesir", "date": "14/04/2011", "death": "Ate\u015fli Silah", "name": "Gamze Tan\u0131rkut", "reason": "Ayr\u0131l\u0131k", "req": "Tespit Edilemeyen", "source": "http://www.iha.com.tr/NewsDetail.aspx?nid=169456&cid=0", "type": "boundary", "who": "Sevgilisi", "year": 2011}, "type": "Feature"}, {"geometry": {"coordinates": [34.16436, 39.14805], "type": "Point"}, "properties": {"city": "K\u0131r\u015fehir", "date": "14/02/2011", "death": "Ate\u015fli Silah", "name": "Zeynep Salba\u015f", "reason": "Reddetme", "req": "yok", "source": "http://m2.samanyoluhaber.com/Kadini-oldurdukten-sonra-intihar-eden-Simsek-topraga-verildi-haberi-533729.html", "type": "boundary", "who": "Sevgilisi", "year": 2011}, "type": "Feature"}, {"geometry": {"coordinates": [32.50775, 37.87089], "type": "Point"}, "properties": {"city": "Konya", "date": "25/03/2011", "death": "\u0130\u015fkence", "name": "Havvanur \u00c7art\u0131", "reason": "K\u0131skan\u00e7l\u0131k", "req": "Tespit Edilemeyen", "source": "http://www.dha.com.tr/smsye-kurban-gitmis_150594.html", "type": "boundary", "who": "Kocas\u0131", "year": 2011}, "type": "Feature"}, {"geometry": {"coordinates": [29.05865, 40.18437], "type": "Point"}, "properties": {"city": "Bursa", "date": "27/09/2011", "death": "\u0130\u015fkence ", "name": "Dilek Tuncer", "reason": "Ayr\u0131l\u0131k", "req": "Yok", "source": "http://hurarsiv.hurriyet.com.tr/goster/printnews.aspx?DocID=19098405", "type": "boundary", "who": "Kocas\u0131", "year": 2011}, "type": "Feature"}, {"geometry": {"coordinates": [27.173902, 38.455219], "type": "Point"}, "properties": {"city": "\u0130zmir", "date": "13/09/2011", "death": "\u0130\u015fkence ", "name": "Ferdane \u00c7\u00f6l", "reason": "Bo\u015fanma", "req": "Var", "source": "http://www.sabah.com.tr/Yasam/2012/06/28/polisten-koca-kurbani-kadina-ol-de-kurtulalim", "type": "boundary", "who": "Kocas\u0131", "year": 2011}, "type": "Feature"}, {"geometry": {"coordinates": [38.383, 40.9152], "type": "Point"}, "properties": {"city": "Giresun", "date": "08/03/2011", "death": "Ate\u015fli Silah", "name": "Zahide T\u0131\u011fl\u0131", "reason": "Tespit Edilemeyen", "req": "Ger\u00e7ekle\u015fmemi\u015f", "source": "http://www.sabah.com.tr/Yasam/2011/03/09/icra_muduru_evinin_onunde_ensesinden_vurularak_olduruldu", "type": "boundary", "who": "Eski Kocas\u0131", "year": 2011}, "type": "Feature"}, {"geometry": {"coordinates": [35.287923, 36.983658], "type": "Point"}, "properties": {"city": "Adana", "date": "10/03/2011", "death": "Ate\u015fli Silah", "name": "Sevgi S.", "reason": "Erke\u011fin istedi\u011fi bir \u015feyin ger\u00e7ekle\u015fmemesi sebebiyle", "req": "Bilinmiyor", "source": "http://www.cumhuriyet.com.tr/?hn=223630", "type": "boundary", "who": "Kocas\u0131", "year": 2011}, "type": "Feature"}, {"geometry": {"coordinates": [28.949682, 41.052702], "type": "Point"}, "properties": {"city": "\u0130stanbul", "date": "18/03/2011", "death": "Ate\u015fli Silah", "name": "Serpil Kamay", "reason": "Bo\u015fanma", "req": "Ger\u00e7ekle\u015fmemi\u015f", "source": "http://www.cnnturk.com/2011/turkiye/03/17/bosanmak.isteyen.esini.basindan.vurdu/610233.0/index.html", "type": "boundary", "who": "Kocas\u0131", "year": 2011}, "type": "Feature"}, {"geometry": {"coordinates": [28.959692, 41.097747], "type": "Point"}, "properties": {"city": "\u0130stanbul", "date": "25/04/2011", "death": " Bo\u011fma", "name": "Zeynep Y\u0131lmaz", "reason": "Reddetme", "req": "Ger\u00e7ekle\u015fmemi\u015f", "source": "http://www.haberturk.com/yasam/haber/625233-cocugu-gostermiyor-diye-oldurdu", "type": "boundary", "who": "Eski Kocas\u0131", "year": 2011}, "type": "Feature"}, {"geometry": {"coordinates": [32.471714, 37.831851], "type": "Point"}, "properties": {"city": "Konya", "date": "20/05/2011", "death": "D\u00f6v\u00fclme", "name": "Ay\u015fe Baydemir", "reason": "Erke\u011fin istedi\u011fi bir \u015feyin ger\u00e7ekle\u015fmemesi sebebiyle", "req": "Tespit Edilemeyen", "source": "http://www.sabah.com.tr/Yasam/2011/05/20/40-yillik-kuma-kavgasi-cinayet-ve-intiharla-bitti", "type": "boundary", "who": "Kocas\u0131", "year": 2011}, "type": "Feature"}, {"geometry": {"coordinates": [43.10264, 40.60375], "type": "Point"}, "properties": {"city": "Kars", "date": "10/09/2011", "death": "D\u00f6v\u00fclme", "name": "Hayret \u00c7aml\u0131", "reason": "Ayr\u0131l\u0131k", "req": "Yok", "source": "http://www.sabah.com.tr/Yasam/2011/09/10/50-yillik-karisini-doverek-oldurdu", "type": "boundary", "who": "Kocas\u0131", "year": 2011}, "type": "Feature"}, {"geometry": {"coordinates": [39.270805, 38.654817], "type": "Point"}, "properties": {"city": "Elaz\u0131\u011f", "date": "24/03/2011", "death": "Kesici Alet", "name": "Gamze Gezero\u011fl\u0131", "reason": "K\u0131skan\u00e7l\u0131k", "req": "yok", "source": "http://www.dha.com.tr/senin-esin-benim-yuvami-yikacak_150453.html", "type": "boundary", "who": "Kocas\u0131", "year": 2011}, "type": "Feature"}, {"geometry": {"coordinates": [36.33734, 41.28104], "type": "Point"}, "properties": {"city": "Samsun", "date": "28/03/2011", "death": "Kesici Alet", "name": "Asuman K.", "reason": "K\u0131skan\u00e7l\u0131k", "req": "Tespit Edilemeyen", "source": "http://www.haberturk.com/yasam/haber/615072-karisini-vahsice-oldurdu", "type": "boundary", "who": "Eski Kocas\u0131", "year": 2011}, "type": "Feature"}, {"geometry": {"coordinates": [28.960693, 41.064714], "type": "Point"}, "properties": {"city": "\u0130stanbul", "date": "11/05/2011", "death": "Bo\u011fma", "name": "Ye\u015fim Erdo\u011fan", "reason": "Erke\u011fin istedi\u011fi bir \u015feyin ger\u00e7ekle\u015fmemesi sebebiyle", "req": "Tespit Edilemeyen", "source": "http://www.ntvmsnbc.com/id/25211933", "type": "boundary", "who": "Kocas\u0131", "year": 2011}, "type": "Feature"}, {"geometry": {"coordinates": [29.07888, 37.78519], "type": "Point"}, "properties": {"city": "Denizli", "date": "26/05/2011", "death": "B\u0131\u00e7aklama", "name": "Saliha Karakaya", "reason": "Para", "req": "yok", "source": "http://gundem.milliyet.com.tr/polise-not-birakti-/gundem/gundemdetay/26.05.2011/1395051/default.htm", "type": "boundary", "who": "Kocas\u0131", "year": 2011}, "type": "Feature"}, {"geometry": {"coordinates": [28.982715, 41.011661], "type": "Point"}, "properties": {"city": "\u0130stanbul", "date": "26/05/2011", "death": "Ate\u015fli Silah", "name": "Emine Malko\u00e7", "reason": "Bo\u015fanma", "req": "Tespit Edilemeyen", "source": "http://www.cnnturk.com/2011/turkiye/06/02/cinayetten.araniyordu.intihar.etti/618709.0/index.html", "type": "boundary", "who": "Damad\u0131", "year": 2011}, "type": "Feature"}, {"geometry": {"coordinates": [32.805882, 39.917086], "type": "Point"}, "properties": {"city": "Ankara", "date": "27/08/2011", "death": "Bo\u011fma", "name": "Mediha Taner", "reason": "Bo\u015fanma", "req": "Ger\u00e7ekle\u015fmemi\u015f", "source": "http://www.hurriyet.com.tr/gundem/18595371.asp", "type": "boundary", "who": "Eski Kocas\u0131", "year": 2011}, "type": "Feature"}, {"geometry": {"coordinates": [30.702233, 36.88897], "type": "Point"}, "properties": {"city": "Antalya", "date": "29/05/2011", "death": "Ate\u015fli Silah", "name": "Birsen Pehlivan", "reason": "Kriz ve \u0130\u015fsizlik", "req": "Tespit Edilemeyen", "source": "http://www.dha.com.tr/annesinin-cesedinin-basinda-4-saat-bekledi_166683.html", "type": "boundary", "who": "Kocas\u0131", "year": 2011}, "type": "Feature"}, {"geometry": {"coordinates": [28.956689, 41.078728], "type": "Point"}, "properties": {"city": "\u0130stanbul", "date": "09/02/2011", "death": "Ate\u015fli Silah", "name": "Arzu Y\u0131ld\u0131r\u0131m", "reason": "Tespit Edilemeyen", "req": "Ger\u00e7ekle\u015fmemi\u015f", "source": "http://haber.mynet.com/arzu-yildirimin-katil-zanlisi-intihar-etti-555397-yasam/", "type": "boundary", "who": "Eski Kocas\u0131", "year": 2011}, "type": "Feature"}, {"geometry": {"coordinates": [35.338974, 37.00568], "type": "Point"}, "properties": {"city": "Adana", "date": "30/07/2011", "death": "Ate\u015fli Silah", "name": "Elem \u00dcnal", "reason": "Bilinmiyor", "req": "Tespit Edilemeyen", "source": "http://www.dha.com.tr/polisten-kacan-otomobilden-oyle-bir-sey-cikti-ki_191432.html", "type": "boundary", "who": "Kocas\u0131", "year": 2011}, "type": "Feature"}, {"geometry": {"coordinates": [26.55624, 41.67741], "type": "Point"}, "properties": {"city": "Edirne", "date": "16/02/2011", "death": "B\u0131\u00e7aklama", "name": "Seniha Yoku\u015f", "reason": "Para", "req": "Tespit Edilemeyen", "source": "http://www.sabah.com.tr/Yasam/2011/03/30/katili-kiracisi-cikti", "type": "boundary", "who": "Tan\u0131d\u0131\u011f\u0131 Biri", "year": 2011}, "type": "Feature"}, {"geometry": {"coordinates": [37.387172, 37.035493], "type": "Point"}, "properties": {"city": "Gaziantep", "date": "07/03/2011", "death": "Ate\u015fli Silah", "name": "P\u0131nar T\u00fcrkmen", "reason": "Reddetme", "req": "yok", "source": "http://www.haberturk.com/yasam/haber/608083-lezbiyen-iliski-yasiyordu-uyardim-dinlemeyince-oldurdum", "type": "boundary", "who": "Eski Sevgilisi", "year": 2011}, "type": "Feature"}, {"geometry": {"coordinates": [30.28245, 37.71721], "type": "Point"}, "properties": {"city": "Burdur", "date": "29/07/2011", "death": "Ate\u015fli Silah", "name": "G\u00fcls\u00fcm Korkmaz", "reason": "Bo\u015fanma", "req": "Tespit Edilemeyen", "source": "http://www.haberturk.com/yasam/haber/652957-barismaya-gittigi-kayinvalidesini-oldurdu", "type": "boundary", "who": "Damad\u0131", "year": 2011}, "type": "Feature"}, {"geometry": {"coordinates": [29.001734, 41.057707], "type": "Point"}, "properties": {"city": "\u0130stanbul", "date": "02/07/1011", "death": "Ate\u015fli Silah", "name": "Sakine Akku\u015f", "reason": "Bo\u015fanma", "req": "Tespit Edilemeyen", "source": "http://www.dha.com.tr/sokak-ortasinda-infaz-_140546.html", "type": "boundary", "who": "Kocas\u0131", "year": 2011}, "type": "Feature"}, {"geometry": {"coordinates": [26.76749, 38.32701], "type": "Point"}, "properties": {"city": "urfa", "date": "05/02/2011", "death": "Ate\u015fli Silah", "name": "Remziye \u00c7akmak", "reason": "Kriz ve \u0130\u015fsizlik", "req": "Tespit Edilemeyen", "source": "http://www.dha.com.tr/beni-sevmiyorsun-kursunu_140313.html", "type": "boundary", "who": "Kocas\u0131", "year": 2011}, "type": "Feature"}, {"geometry": {"coordinates": [35.48351, 38.72092], "type": "Point"}, "properties": {"city": "kayseri", "date": "11/02/2011", "death": "Kesici Alet", "name": "Ayla Y\u0131ld\u0131r\u0131m", "reason": "K\u0131skan\u00e7l\u0131k", "req": "yok", "source": "http://haber.gazetevatan.com/bir-kadin-cinayeti-daha/358736/7/Haber", "type": "boundary", "who": "Kocas\u0131", "year": 2011}, "type": "Feature"}, {"geometry": {"coordinates": [34.63415, 36.79988], "type": "Point"}, "properties": {"city": "Mersin", "date": "08/09/2001", "death": "\u0130\u015fkence ", "name": "Z\u00fcleyha B.", "reason": "Kriz ve \u0130\u015fsizlik", "req": "yok", "source": "http://www.sabah.com.tr/Yasam/2011/09/08/karisini-basina-tas-vurarak-oldurdu", "type": "boundary", "who": "Kocas\u0131", "year": 2011}, "type": "Feature"}, {"geometry": {"coordinates": [29.035768, 41.04069], "type": "Point"}, "properties": {"city": "\u0130stanbul", "date": "05/09/2011", "death": "B\u0131\u00e7aklama", "name": "Zeynep G\u00f6k\u00e7e", "reason": "Kriz ve \u0130\u015fsizlik", "req": "Yok", "source": "http://www.sabah.com.tr/Yasam/2011/09/05/karisini-oldurmeden-once-olumle-ilgili-mesajlar-verdi", "type": "boundary", "who": "Kocas\u0131", "year": 2011}, "type": "Feature"}, {"geometry": {"coordinates": [34.672188, 36.805886], "type": "Point"}, "properties": {"city": "Mersin", "date": "03/09/2011", "death": "B\u0131\u00e7aklama", "name": "Zahide Goncag\u00fcl", "reason": "K\u0131skan\u00e7l\u0131k", "req": "yok", "source": "http://www.sabah.com.tr/Yasam/2011/09/03/goncagul-19-yasinda-soldu", "type": "boundary", "who": "Kocas\u0131", "year": 2011}, "type": "Feature"}, {"geometry": {"coordinates": [31.59876, 40.73061], "type": "Point"}, "properties": {"city": "Bolu", "date": "21/09/2011", "death": "B\u0131\u00e7aklama", "name": "Seher Kocaman", "reason": "Kriz ve \u0130\u015fsizlik", "req": "Yok", "source": "http://www.dha.com.tr/bir-kadin-cinayeti-daha_210878.html", "type": "boundary", "who": "Kocas\u0131", "year": 2011}, "type": "Feature"}, {"geometry": {"coordinates": [33.5125, 39.84058], "type": "Point"}, "properties": {"city": "K\u0131r\u0131kkale", "date": "25/09/2011", "death": "Ate\u015fli Silah", "name": "Eylem G\u00fcne\u015f", "reason": "Kad\u0131n hayat\u0131na dair bir karar vermek istedi\u011fi i\u00e7in", "req": "Yok", "source": "http://gundem.milliyet.com.tr/polisin-cinneti/gundem/gundemdetay/25.09.2011/1442688/default.htm", "type": "boundary", "who": "Kocas\u0131", "year": 2011}, "type": "Feature"}, {"geometry": {"coordinates": [34.680196, 36.778859], "type": "Point"}, "properties": {"city": "Mersin", "date": "01/10/2011", "death": "Ate\u015fli Silah", "name": "Hayriye Y.", "reason": "Ayr\u0131l\u0131k", "req": "Yok", "source": "http://haber.gazetevatan.com/bir-kadin-cinayeti-daha/402856/7/Haber", "type": "boundary", "who": "Kocas\u0131", "year": 2011}, "type": "Feature"}, {"geometry": {"coordinates": [37.367152, 37.085543], "type": "Point"}, "properties": {"city": "Gaziantep", "date": "26/01/2011", "death": "Ate\u015fli Silah", "name": "Adile Erzurumlu", "reason": "Namus", "req": "Yok", "source": "http://www.milliyet.com.tr/8-cocuklu-kadina-babadan-5-kursun/yasam/haberdetay/26.01.2011/1344134/default.htm", "type": "boundary", "who": "Babas\u0131", "year": 2011}, "type": "Feature"}, {"geometry": {"coordinates": [34.650166, 36.804885], "type": "Point"}, "properties": {"city": "Mersin", "date": "03/02/2011", "death": "Kesici Alet", "name": "Hatice F\u0131rat", "reason": "Namus", "req": "yok", "source": "http://www.dha.com.tr/mersinde-korkunc-tore-cinayeti_145320.html", "type": "boundary", "who": "Aile Meclisi - Erkek Karde\u015fi", "year": 2011}, "type": "Feature"}, {"geometry": {"coordinates": [44.04059, 39.91929], "type": "Point"}, "properties": {"city": "I\u011fd\u0131r", "date": "02/01/2011", "death": "B\u0131\u00e7aklama", "name": "Zelal \u015e.", "reason": "Namus", "req": "Yok", "source": "http://www.radikal.com.tr/Radikal.aspx?aType=RadikalDetayV3&ArticleID=1035024&CategoryID=77", "type": "boundary", "who": "Aile Meclisi - Babas\u0131", "year": 2011}, "type": "Feature"}, {"geometry": {"coordinates": [40.2107, 37.92445], "type": "Point"}, "properties": {"city": "Diyarbak\u0131r", "date": "17/01/2011", "death": "Ate\u015fli Silah", "name": "\u0130pek Tekin", "reason": "Namus", "req": "Var - S\u0131\u011f\u0131nmaevi", "source": "http://www.milliyet.com.tr/tore-kurbani-ipek-siginma-evinden-olume-kacmis/turkiye/sondakika/18.01.2011/1340996/default.htm", "type": "boundary", "who": "Aile Meclisi - Eski E\u015f", "year": 2011}, "type": "Feature"}, {"geometry": {"coordinates": [27.126855, 38.381145], "type": "Point"}, "properties": {"city": "\u0130zmir", "date": "18/07/2011", "death": "Bo\u011fma", "name": "Neslihan Ad\u0131g\u00fczel", "reason": "Namus", "req": "Bilinmiyor-\u015fiddet", "source": "http://gundem.milliyet.com.tr/kocasi-oldurup-baraj-golune-atti/gundem/gundemdetay/19.07.2011/1416057/default.htm", "type": "boundary", "who": "Aile Meclisi - E\u015fi", "year": 2011}, "type": "Feature"}, {"geometry": {"coordinates": [36.195757, 36.174341], "type": "Point"}, "properties": {"city": "Hatay", "date": "19/07/2011", "death": "Ate\u015fli Silah", "name": "Ceylan Soysal", "reason": "Bo\u015fanma", "req": "Ger\u00e7ekle\u015fmemi\u015f", "source": "http://www.dha.com.tr/boyle-tore-olmaz-olsun_187459.html", "type": "boundary", "who": "Aile Meclisi - Erkek Karde\u015fi-Baba", "year": 2011}, "type": "Feature"}, {"geometry": {"coordinates": [39.240775, 38.665828], "type": "Point"}, "properties": {"city": "Elaz\u0131\u011f", "date": "07/05/2011", "death": "Ate\u015fli Silah", "name": "Nebahat Karakaya", "reason": "Reddetme", "req": "Var", "source": "http://www.dha.com.tr/zorba-ask-cinayeti-2-olu_160372.html", "type": "boundary", "who": "Evlenmek \u0130steyen \u015eah\u0131s", "year": 2011}, "type": "Feature"}, {"geometry": {"coordinates": [43.991541, 39.883254], "type": "Point"}, "properties": {"city": "I\u011fd\u0131r", "date": "14/01/2011", "death": "Ate\u015fli Silah", "name": "G\u00fcl\u00fczar Bulut", "reason": "\u0130ntikam", "req": "yok", "source": "http://gundem.milliyet.com.tr/sokak-ortasinda-saldiriya-ugrayan-kadin-oldu/gundem/gundemdetay/14.01.2011/1339309/default.htm", "type": "boundary", "who": "Akraba", "year": 2011}, "type": "Feature"}, {"geometry": {"coordinates": [31.78482, 41.4509], "type": "Point"}, "properties": {"city": "Zonguldak", "date": "26/05/2011", "death": "Ate\u015fli Silah", "name": "Habibe Kundak\u00e7\u0131o\u011flu", "reason": "Erke\u011fin istedi\u011fi bir \u015feyin ger\u00e7ekle\u015fmemesi sebebiyle", "req": "Yok", "source": "http://www.dha.com.tr/3-kisiyi-oldurdu_165315.html", "type": "boundary", "who": "Akraba", "year": 2011}, "type": "Feature"}, {"geometry": {"coordinates": [31.775811, 41.437887], "type": "Point"}, "properties": {"city": "Zonguldak", "date": "26/05/2011", "death": "Tespit Edilemeyen", "name": "Fatime Kundak\u00e7\u0131o\u011flu", "reason": "Erke\u011fin istedi\u011fi bir \u015feyin ger\u00e7ekle\u015fmemesi sebebiyle", "req": "Yok", "source": "http://www.dha.com.tr/3-kisiyi-oldurdu_165315.html", "type": "boundary", "who": "Akraba", "year": 2011}, "type": "Feature"}, {"geometry": {"coordinates": [37.348133, 37.080538], "type": "Point"}, "properties": {"city": "Gaziantep", "date": "01/11/2011", "death": "\u0130\u015fkence ", "name": "Sevim Tokta\u015f", "reason": "Kad\u0131n hayat\u0131na dair bir karar vermek istedi\u011fi i\u00e7in", "req": "Yok", "source": "http://gundem.milliyet.com.tr/nisanlisi-sevim-i-damatligiyla-ugurladi/gundem/gundemdetay/01.11.2011/1457955/default.htm", "type": "boundary", "who": "Babas\u0131", "year": 2011}, "type": "Feature"}, {"geometry": {"coordinates": [28.954687, 41.0507], "type": "Point"}, "properties": {"city": "\u0130stanbul", "date": "14/02/2011", "death": "Ate\u015fli Silah", "name": "Saliha Erdem", "reason": "K\u0131skan\u00e7l\u0131k", "req": "Tespit Edilemeyen", "source": "http://www.radikal.com.tr/Radikal.aspx?aType=RadikalDetayV3&ArticleID=1040054&CategoryID=77", "type": "boundary", "who": "Eski Kocas\u0131", "year": 2011}, "type": "Feature"}, {"geometry": {"coordinates": [28.981714, 41.064714], "type": "Point"}, "properties": {"city": "\u0130stanbul", "date": "22/08/2011", "death": "At\u0131lma", "name": "G\u00fclay Ya\u015far", "reason": "Ayr\u0131l\u0131k", "req": "Ger\u00e7ekle\u015fmemi\u015f", "source": "http://gundem.milliyet.com.tr/eski-koca-evindeki-supheli-olume-bakanlik-mudahil/gundem/gundemdetay/13.06.2012/1552961/default.htm", "type": "boundary", "who": "Eski Kocas\u0131", "year": 2011}, "type": "Feature"}, {"geometry": {"coordinates": [29.964585, 40.729374], "type": "Point"}, "properties": {"city": "Kocaeli", "date": "27/09/2011", "death": "B\u0131\u00e7aklama", "name": "\u0130nci Sezer", "reason": "Reddetme", "req": "Ger\u00e7ekle\u015fmemi\u015f", "source": "http://gundem.milliyet.com.tr/4-yil-once-bosandigi-eski-karisini-17-bicak-darbesiyle-katletti/gundem/gundemdetay/27.09.2011/1443462/default.htm", "type": "boundary", "who": "Eski Kocas\u0131", "year": 2011}, "type": "Feature"}, {"geometry": {"coordinates": [30.39007, 40.77629], "type": "Point"}, "properties": {"city": "Sakarya", "date": "17/09/2011", "death": "Ate\u015fli Silah", "name": "\u0130pek Akkoyun", "reason": "Reddetme", "req": "Yok", "source": "http://gundem.milliyet.com.tr/45-dakikada-2-cinayet/gundem/gundemdetay/18.09.2011/1440087/default.htm", "type": "boundary", "who": "Eski Kocas\u0131", "year": 2011}, "type": "Feature"}, {"geometry": {"coordinates": [28.951684, 41.045695], "type": "Point"}, "properties": {"city": "\u0130stanbul", "date": "28/12/2009", "death": "\u0130\u015fkence", "name": "Mine Elag\u00f6z", "reason": "Seri Cinayet", "req": "Yok", "source": "http://www.milliyet.com.tr/Yasam/SonDakika.aspx?aType=SonDakika&ArticleID=1179462", "type": "boundary", "who": "Seri Katil - 3 Kad\u0131n \u00f6l\u00fcm\u00fc", "year": 2011}, "type": "Feature"}, {"geometry": {"coordinates": [31.792828, 41.426876], "type": "Point"}, "properties": {"city": "Zonguldak", "date": "21/06/2011", "death": "Ate\u015fli Silah", "name": "Rengiye Mersinli", "reason": "Ayr\u0131l\u0131k", "req": "Var", "source": "http://gundem.milliyet.com.tr/artik-yeter-/gundem/gundemdetay/23.06.2011/1405614/default.htm", "type": "boundary", "who": "Eski Kocas\u0131", "year": 2011}, "type": "Feature"}, {"geometry": {"coordinates": [32.830907, 39.877046], "type": "Point"}, "properties": {"city": "Ankara", "date": "21/06/2011", "death": "B\u0131\u00e7aklama", "name": "Rahime Y\u0131ld\u0131z U\u00e7ar", "reason": "Erke\u011fin istedi\u011fi bir \u015feyin ger\u00e7ekle\u015fmemesi sebebiyle", "req": "", "source": "http://gundem.milliyet.com.tr/artik-yeter-/gundem/gundemdetay/23.06.2011/1405614/default.htm", "type": "boundary", "who": "Eski Kocas\u0131", "year": 2011}, "type": "Feature"}, {"geometry": {"coordinates": [27.87619, 39.657442], "type": "Point"}, "properties": {"city": "Bal\u0131kesir", "date": "06/01/2011", "death": "Ate\u015fli Silah", "name": "Funda Akba\u015f", "reason": "K\u0131skan\u00e7l\u0131k", "req": "Yok", "source": "http://www.dha.com.tr/ogretmen-de-bunu-yaparsa_134197.html", "type": "boundary", "who": "Eski Ni\u015fanl\u0131s\u0131", "year": 2011}, "type": "Feature"}, {"geometry": {"coordinates": [27.83252, 37.84087], "type": "Point"}, "properties": {"city": "Ayd\u0131n", "date": "24/03/2011", "death": "\u0130\u015fkence ", "name": "Gamze G\u00fcrgen", "reason": "Reddetme", "req": "yok", "source": "http://www.haberturk.com/yasam/haber/690844-gamzenin-katiline-muebbet", "type": "boundary", "who": "Tan\u0131mad\u0131\u011f\u0131 Birisi", "year": 2011}, "type": "Feature"}, {"geometry": {"coordinates": [28.984717, 41.081731], "type": "Point"}, "properties": {"city": "\u0130stanbul", "date": "12/05/2011", "death": "\u0130\u015fkence ", "name": "Alis Valishayeva", "reason": "Para", "req": "Tespit Edilemeyen", "source": "http://gundem.milliyet.com.tr/gurcu-kadini-parcaladilar/gundem/gundemdetay/14.05.2011/1390110/default.htm", "type": "boundary", "who": "2 Arkada\u015f\u0131", "year": 2011}, "type": "Feature"}, {"geometry": {"coordinates": [32.835912, 39.924093], "type": "Point"}, "properties": {"city": "Ankara", "date": "10/02/2012", "death": "\u0130\u015fkence", "name": "Ay\u015fe Demir", "reason": "Kad\u0131n hayat\u0131na dair bir karar vermek istedi\u011fi i\u00e7in", "req": "Ger\u00e7ekle\u015fmemi\u015f", "source": "http://www.sabah.com.tr/Yasam/2012/08/01/kesik-bas-cinayetine-agirlastirilmis-muebbet-hapis-istemi", "type": "boundary", "who": "Tan\u0131d\u0131\u011f\u0131 Biri", "year": 2011}, "type": "Feature"}, {"geometry": {"coordinates": [29.072664, 40.188374], "type": "Point"}, "properties": {"city": "Bursa", "date": "06/03//2011", "death": "Vurucu Silah", "name": "Ay\u015fe G\u00f6k\u00e7e", "reason": "Namus", "req": "yok", "source": "http://www.dha.com.tr/kayinvalidemi-oldurdum-cunku_217615.html", "type": "boundary", "who": "Damad\u0131", "year": 2011}, "type": "Feature"}, {"geometry": {"coordinates": [29.087679, 40.223409], "type": "Point"}, "properties": {"city": "Bursa", "date": "16/02/2011", "death": "\u0130\u015fkence ", "name": "Sema Karakoca", "reason": "Organ Mafyas\u0131", "req": "Yok", "source": "http://www.hurriyet.com.tr/gundem/17436156.asp", "type": "boundary", "who": "Bilinmiyor", "year": 2011}, "type": "Feature"}, {"geometry": {"coordinates": [30.705236, 36.915997], "type": "Point"}, "properties": {"city": "Antalya", "date": "17/03/2011", "death": "B\u0131\u00e7aklama", "name": "Fatma Tohumcu", "reason": "K\u0131skan\u00e7l\u0131k", "req": "Tespit Edilemeyen", "source": "http://www.usakhabermerkezi.com/adliye-polis-ve-jandarma/manavgat-ta-cinayet-fatma-tohumcu-isimli-genc-kadin-bicaklanarak-olduruldu-h517.html", "type": "boundary", "who": "Kocas\u0131", "year": 2011}, "type": "Feature"}, {"geometry": {"coordinates": [39.5468, 39.10078], "type": "Point"}, "properties": {"city": "Tunceli", "date": "16/03/2011", "death": "Bo\u011fma", "name": "Dilber Erkmen", "reason": "Tespit Edilemeyen", "req": "Tespit Edilemeyen", "source": "http://www.cnnturk.com/2011/turkiye/03/18/tuncelideki.kadinlar.cinayet.kurbani/610452.0/index.html", "type": "boundary", "who": "Tespit Edilemeyen", "year": 2011}, "type": "Feature"}, {"geometry": {"coordinates": [39.565819, 39.122802], "type": "Point"}, "properties": {"city": "Tunceli", "date": "16/03/2011", "death": "Ate\u015fli Silah", "name": "Tu\u011fba Korkmaz", "reason": "Erke\u011fin istedi\u011fi bir \u015feyin ger\u00e7ekle\u015fmemesi sebebiyle", "req": "Yok", "source": "http://www.cnnturk.com/2011/turkiye/03/18/tuncelideki.kadinlar.cinayet.kurbani/610452.0/index.html", "type": "boundary", "who": "Sevgilisi", "year": 2011}, "type": "Feature"}, {"geometry": {"coordinates": [28.965698, 41.043693], "type": "Point"}, "properties": {"city": "\u0130stanbul", "date": "22/03/2011", "death": "\u0130\u015fkence", "name": "Fatma Karata\u015f", "reason": "Para", "req": "Tespit Edilemeyen", "source": "http://www.haberturk.com/yasam/haber/613140-maltepede-korkunc-cinayet", "type": "boundary", "who": "O\u011flu", "year": 2011}, "type": "Feature"}, {"geometry": {"coordinates": [30.355035, 40.780294], "type": "Point"}, "properties": {"city": "Sakarya", "date": "25/06/2012", "death": "Ate\u015fli Silah", "name": "B. C.", "reason": "Kavga", "req": "Tespit Edilemeyen", "source": "http://www.sakaryarehberim.com/others/haber-adapazarinda-arkadas-cinayeti-170345.html", "type": "boundary", "who": "Arkada\u015f\u0131", "year": 2011}, "type": "Feature"}, {"geometry": {"coordinates": [36.892064, 37.586821], "type": "Point"}, "properties": {"city": "Kahramanmara\u015f", "date": "08/07/2011", "death": "Bo\u011fma", "name": "K\u00fcbra Nur \u015eahin", "reason": "Tespit Edilemeyen", "req": "Tespit Edilemeyen", "source": "http://gundem.milliyet.com.tr/kiz-arkadasini-oldurdu-gozaltinda-inithara-kalkisti/gundem/gundemdetay/08.07.2011/1411981/default.htm", "type": "boundary", "who": "Sevgilisi", "year": 2011}, "type": "Feature"}, {"geometry": {"coordinates": [35.517544, 38.729929], "type": "Point"}, "properties": {"city": "Kayseri", "date": "29/05/2011", "death": "B\u0131\u00e7aklama", "name": "H\u00fclya Kalkan", "reason": "K\u0131skan\u00e7l\u0131k", "req": "Tespit Edilemeyen", "source": "http://www.sabah.com.tr/Yasam/2011/05/29/satmak-istedigi-karisi-direndi-31-kez-bicakladi", "type": "boundary", "who": "Kocas\u0131", "year": 2011}, "type": "Feature"}, {"geometry": {"coordinates": [27.146875, 38.399163], "type": "Point"}, "properties": {"city": "\u0130zmir", "date": "03/04/2011", "death": "Kesici Alet", "name": "G\u00fclnara U.", "reason": "Kocas\u0131", "req": "Tespit Edilemeyen", "source": "http://www.sabah.com.tr/Yasam/2011/04/03/korkunc-cinayet", "type": "boundary", "who": "Kocas\u0131", "year": 2011}, "type": "Feature"}, {"geometry": {"coordinates": [35.363999, 37.017692], "type": "Point"}, "properties": {"city": "Adana", "date": "06/042011", "death": "Ate\u015fli Silah", "name": "Filiz Akar", "reason": "Erke\u011fin istedi\u011fi bir \u015feyin ger\u00e7ekle\u015fmemesi sebebiyle", "req": "Bilinmiyor", "source": "http://www.ntvmsnbc.com/id/25200029", "type": "boundary", "who": "Kocas\u0131", "year": 2011}, "type": "Feature"}, {"geometry": {"coordinates": [28.943676, 41.016666], "type": "Point"}, "properties": {"city": "\u0130stanbul", "date": "21/07/2011", "death": "B\u0131\u00e7aklama", "name": "Gamze Dikg\u00f6z", "reason": "Tespit Edilemeyen", "req": "Tespit Edilemeyen", "source": "http://www.sabah.com.tr/Yasam/2011/07/21/gamzenin-katili-kameraya-takildi", "type": "boundary", "who": "Tespit Edilemeyen", "year": 2011}, "type": "Feature"}, {"geometry": {"coordinates": [27.790478, 37.884914], "type": "Point"}, "properties": {"city": "Ayd\u0131n", "date": "17/07/2011", "death": "Ate\u015fli Silah", "name": "S\u0131la Sadi", "reason": "K\u0131skan\u00e7l\u0131k", "req": "yok", "source": "http://www.posta.com.tr/turkiye/HaberDetay/Tartistigi_sevgilisini_beylik_tabancasiyla_oldurdu.htm?ArticleID=80481", "type": "boundary", "who": "Sevgilisi - Polis", "year": 2011}, "type": "Feature"}, {"geometry": {"coordinates": [27.095824, 38.377141], "type": "Point"}, "properties": {"city": "\u0130zmir", "date": "01/04/2011", "death": "Ate\u015fli Silah", "name": "Naciye Kalyoncu", "reason": "Bo\u015fanma", "req": "Tespit Edilemeyen", "source": "http://www.cnnturk.com/2011/turkiye/04/10/cocuklarin.gozu.onunde.esini.oldurdu/612822.0/index.html", "type": "boundary", "who": "Eski Kocas\u0131", "year": 2011}, "type": "Feature"}, {"geometry": {"coordinates": [36.346349, 41.282041], "type": "Point"}, "properties": {"city": "Samsun", "date": "11/04/2011", "death": "B\u0131\u00e7aklama", "name": "Fikriye Kul", "reason": "K\u0131skan\u00e7l\u0131k", "req": "Tespit Edilemeyen", "source": "http://www.haberturk.com/yasam/haber/619624-samsunda-kadin-cinayeti", "type": "boundary", "who": "Kocas\u0131", "year": 2011}, "type": "Feature"}, {"geometry": {"coordinates": [28.996729, 41.024674], "type": "Point"}, "properties": {"city": "\u0130stanbul", "date": "13/04/2011", "death": "B\u0131\u00e7aklama", "name": "Fatma Eti\u015fgen", "reason": "Bo\u015fanma", "req": "Tespit Edilemeyen", "source": "http://www.sabah.com.tr/Yasam/2011/04/13/bosanma-davasi-acan-esini-sokakta-oldurdu", "type": "boundary", "who": "Kocas\u0131", "year": 2011}, "type": "Feature"}, {"geometry": {"coordinates": [27.166895, 38.400164], "type": "Point"}, "properties": {"city": "\u0130zmir", "date": "24/04/2011", "death": "Kesici Alet", "name": "\u015eahnur Akay", "reason": "K\u0131skan\u00e7l\u0131k", "req": "Tespit Edilemeyen", "source": "http://hurarsiv.hurriyet.com.tr/goster/haber.aspx?id=17683570&tarih=2011-05-02", "type": "boundary", "who": "Kocas\u0131", "year": 2011}, "type": "Feature"}, {"geometry": {"coordinates": [36.975147, 37.557792], "type": "Point"}, "properties": {"city": "Kahramanmara\u015f", "date": "10/01/2011", "death": "Ate\u015fli Silah", "name": "Ay\u015fe \u00c7ak\u0131r", "reason": "Erke\u011fin istedi\u011fi bir \u015feyin ger\u00e7ekle\u015fmemesi sebebiyle", "req": "Tespit Edilemeyen", "source": "http://www.milliyet.com.tr/bahce-duvarina-carpti-esini-oldurdu-/turkiye/sondakika/10.01.2011/1337258/default.htm", "type": "boundary", "who": "Kocas\u0131", "year": 2011}, "type": "Feature"}, {"geometry": {"coordinates": [34.665181, 36.751832], "type": "Point"}, "properties": {"city": "Mersin", "date": "29/07/2011", "death": "Ate\u015fli Silah", "name": "Meliha Karaduman", "reason": "K\u0131skan\u00e7l\u0131k", "req": "Tespit Edilemeyen", "source": "http://www.sabah.com.tr/Yasam/2011/07/29/karisina-kufur-eden-sevgilisini-oldurdu", "type": "boundary", "who": "Sevgilisi", "year": 2011}, "type": "Feature"}, {"geometry": {"coordinates": [36.290293, 41.259018], "type": "Point"}, "properties": {"city": "samsun", "date": "09/07/2011", "death": "B\u0131\u00e7aklama", "name": "Feride \u015een", "reason": "Kriz ve \u0130\u015fsizlik", "req": "Tespit Edilemeyen", "source": "http://www.sabah.com.tr/Yasam/2011/07/09/karisini-12-yerinden-bicaklayarak-oldurdu", "type": "boundary", "who": "Kocas\u0131", "year": 2011}, "type": "Feature"}, {"geometry": {"coordinates": [32.481724, 37.833853], "type": "Point"}, "properties": {"city": "konya", "date": "14/07/2011", "death": "Ate\u015fli Silah", "name": "Ebru Acay", "reason": "Bo\u015fanma", "req": "Tespit Edilemeyen", "source": "http://www.dha.com.tr/bir-kadin-cinayeti-daha_185226.html", "type": "boundary", "who": "Kocas\u0131", "year": 2011}, "type": "Feature"}, {"geometry": {"coordinates": [29.090682, 40.196382], "type": "Point"}, "properties": {"city": "Bursa", "date": "04/02/2011", "death": "Ate\u015fli Silah", "name": "G\u00fclcan \u015eahin", "reason": "Para", "req": "Tespit Edilemeyen", "source": "http://haber.gazetevatan.com/katile-meslektas-torpili/357252/7/Haber", "type": "boundary", "who": "\u0130\u015f Orta\u011f\u0131", "year": 2011}, "type": "Feature"}, {"geometry": {"coordinates": [34.71523, 38.62284], "type": "Point"}, "properties": {"city": "nev\u015fehir", "date": "04/02/2011", "death": "Bo\u011fma", "name": "Telli Duvako\u011flu", "reason": "Tespit Edilemeyen", "req": "Tespit Edilemeyen", "source": "http://www.hurriyet.com.tr/gundem/16934710_p.asp", "type": "boundary", "who": "Sevgilisi", "year": 2011}, "type": "Feature"}, {"geometry": {"coordinates": [27.166895, 38.432196], "type": "Point"}, "properties": {"city": "\u0130zmir", "date": "15/07/2011", "death": "B\u0131\u00e7aklama", "name": "Ayten D.", "reason": "Tespit Edilemeyen", "req": "Tespit Edilemeyen", "source": "http://www.dha.com.tr/yine-kadin-cinayeti-_185885.html", "type": "boundary", "who": "Kocas\u0131", "year": 2011}, "type": "Feature"}, {"geometry": {"coordinates": [43.101639, 40.592739], "type": "Point"}, "properties": {"city": "kars", "date": "22/07/2011", "death": "Ate\u015fli Silah", "name": "Semra Aras", "reason": "Kriz ve \u0130\u015fsizlik", "req": "Tespit Edilemeyen", "source": "http://www.dha.com.tr/esini-vurduktan-sonra-intihar-etti_188184.html", "type": "boundary", "who": "Kocas\u0131", "year": 2011}, "type": "Feature"}, {"geometry": {"coordinates": [32.839916, 39.969138], "type": "Point"}, "properties": {"city": "ankara", "date": "25/07/2011", "death": "Ate\u015fli Silah", "name": "Naile Ekinci", "reason": "Bo\u015fanma", "req": "Ger\u00e7ekle\u015fmemi\u015f", "source": "http://www.sabah.com.tr/Yasam/2011/07/25/ofkeli-koca-esini-oldurdu-kacamayinca-intihar-etti", "type": "boundary", "who": "Kocas\u0131", "year": 2011}, "type": "Feature"}, {"geometry": {"coordinates": [37.341126, 37.104562], "type": "Point"}, "properties": {"city": "Gaziantep", "date": "26/10/2011", "death": "B\u0131\u00e7aklama", "name": "Faize \u0130lban", "reason": "Kriz ve \u0130\u015fsizlik", "req": "Yok", "source": "http://www.dha.com.tr/bir-kadin-cinayeti-daha_226114.html", "type": "boundary", "who": "Kocas\u0131", "year": 2011}, "type": "Feature"}, {"geometry": {"coordinates": [32.806883, 39.912081], "type": "Point"}, "properties": {"city": "Ankara", "date": "25/10/2011", "death": "B\u0131\u00e7aklama", "name": "G\u00fclten K\u0131van\u00e7", "reason": "Ayr\u0131l\u0131k", "req": "Yok", "source": "http://www.posta.com.tr/turkiye/HaberDetay/Iliskiye_girdikleri_kadini_oldurduler.htm?ArticleID=93635", "type": "boundary", "who": "Kocas\u0131", "year": 2011}, "type": "Feature"}, {"geometry": {"coordinates": [27.85254, 37.854884], "type": "Point"}, "properties": {"city": "Ayd\u0131n", "date": "17/10/2011", "death": "Ate\u015fli Silah", "name": "Nurhan \u00c7ad\u0131rc\u0131", "reason": "Bo\u015fanma", "req": "Yok", "source": "http://www.dha.com.tr/canim-kocam_222268.html", "type": "boundary", "who": "Kocas\u0131", "year": 2011}, "type": "Feature"}, {"geometry": {"coordinates": [29.07867, 40.185371], "type": "Point"}, "properties": {"city": "Bursa", "date": "27/10/2011", "death": "B\u0131\u00e7aklama", "name": "Yasemin \u00d6zdemir", "reason": "Tespit Edilemeyen", "req": "Yok", "source": "http://www.sabah.com.tr/Yasam/2011/10/28/uc-cocuk-annesi-olu-bulundu", "type": "boundary", "who": "Bilinmiyor", "year": 2011}, "type": "Feature"}, {"geometry": {"coordinates": [28.966699, 41.069719], "type": "Point"}, "properties": {"city": "\u0130stanbul", "date": "29/07/2011", "death": "Vurucu Alet", "name": "Hatice B\u00fclb\u00fcl", "reason": "Erke\u011fin istedi\u011fi bir \u015feyin ger\u00e7ekle\u015fmemesi sebebiyle", "req": "yok", "source": "http://www.haberturk.com/yasam/haber/652951-sizofren-hastasi-annesini-oldurdu", "type": "boundary", "who": "O\u011flu", "year": 2011}, "type": "Feature"}, {"geometry": {"coordinates": [35.457484, 38.732932], "type": "Point"}, "properties": {"city": "Kayseri", "date": "03/08/2019", "death": "Tespit Edilemeyen", "name": "Merve Ko\u00e7er", "reason": "Tespit Edilemeyen", "req": "Yok", "source": "https://www.sozcu.com.tr/2019/gundem/8-yil-sonra-korkunc-gercek-ortaya-cikti-5264557/", "type": "boundary", "who": "Tan\u0131d\u0131\u011f\u0131\u00a0Birileri", "year": 2011}, "type": "Feature"}], "type": "FeatureCollection"}